"ID","org","address","phone","website","lon","lat","zipcode","beds_capacity","type"
1,"Colorado River Medical Center","1401 Bailey Avenue, Needles, CA 92363","","http://www.cityofneedles.com/Hospitals.asp",-114.617493964,34.8330659210001,"92363",25,"General Acute Care"
2,"Alvarado Hospital Medical Center","6655 Alvarado Road, San Diego, CA 92120","","http://www.alvaradohospital.com",-117.057064596,32.7765863870001,"92120",226,"General Acute Care"
3,"Alvarado Parkway Institute B.h.s.","7050 Parkway Drive, La Mesa, CA 91942","","http://www.apibhs.com",-117.044161793,32.774631666,"91942",66,"Psychiatric"
4,"Kindred Hospital - San Diego","1940 El Cajon Boulevard, San Diego, CA 92104","","http://www.kindredsandiego.com",-117.144645403,32.756383661,"92104",70,"General Acute Care"
5,"Paradise Valley Hospital","2400 East Fourth Street, National City, CA 92050","","http://www.paradisevalleyhospital.org",-117.082336705,32.6853405530001,"92050",227,"General Acute Care"
6,"Laguna Honda Hospital and Rehabilitation Center","375 Laguna Honda Boulevard, San Francisco, CA 94116","","http://lagunahonda.org/",-122.425873352,37.7743640780001,"94116",780,"General Acute Care"
7,"Langley Porter Psychiatric Institute","401 Parnassus Avenue, San Francisco, CA 94143","","http://psych.ucsf.edu/lpphc.aspx",-122.456850621,37.763472349,"94143",67,"Psychiatric"
8,"UCSF Medical Center","505 Parnassus Avenue, San Francisco, CA 94122","","https://www.ucsfhealth.org/",-122.457877178,37.7630768510001,"94122",580,"General Acute Care"
9,"UCSF Medical Center at Mount Zion","1600 Divisadero Street, San Francisco, CA 94115","","http://www.ucsfhealth.org",-122.439147211,37.7849197100001,"94115",140,"General Acute Care"
10,"Coast Plaza Doctors Hospital","13100 South Studebaker Road, Norwalk, CA 90650","","http://www.coastplaza.com",-118.09882162,33.912693115,"90650",117,"General Acute Care"
11,"Community Hospital of Huntington Park","2623 East Slauson Avenue, Huntington Park, CA 90255","","http://www.chhplax.com",-118.224189855,33.989489571,"90255",81,"General Acute Care"
12,"Los Angeles County Olive View-Ucla Medical Center","14445 Olive View Drive, Sylmar, CA 91342","","http://www.ladhs.org",-118.445764102,34.3258717220001,"91342",355,"General Acute Care"
13,"Miracle Mile Medical Center","6000 San Vicente Boulevard, Los Angeles, CA 90036","","http://www.miraclemilemedicalcenter.com",-118.362458577,34.05736635,"90036",17,"General Acute Care"
14,"Olympia Medical Center","5900 West Olympia Blvd, Los Angeles, CA 90036","","http://www.olympiamc.com",-118.360527347,34.0572922740001,"90036",204,"General Acute Care"
15,"Pacific Alliance Medical Center, Inc.","531 West College Street, Los Angeles, CA 90012","","http://www.pamc.net",-118.239227761,34.0648800160001,"90012",138,"General Acute Care"
16,"West Hills Hospital and Medical Center","7300 Medical Center Drive, West Hills, CA 91307","","http://www.westhillshospital.com",-118.62862367,34.202859415,"91307",225,"General Acute Care"
17,"Hazel Hawkins Memorial Hospital","911 Sunset Drive, Hollister, CA 95023","","http://www.hazelhawkins.com",-121.386193641,36.8342012480001,"95023",119,"General Acute Care"
18,"Corona Regional Medical Center-Main","800 South Main Street, Corona, CA 92882","","http://www.coronaregional.com",-117.568320926,33.8730376980001,"92882",160,"General Acute Care"
19,"Patients' Hospital of Redding","2900 Eureka Way, Redding, CA 96001","","http://www.patientshospital.com",-122.416830896,40.5859216490001,"96001",10,"General Acute Care"
20,"Kentfield Rehabilitation Hospital","1125 Sir Francis Drake Blvd, Kentfield, CA 94914","","http://www.kentfieldrehab.com",-122.552495864,37.958706218,"94914",60,"General Acute Care"
21,"Surprise Valley Community Hospital","741 N. Main Street, Cedarville, CA 96104","","http://svhospital.org/",-120.171428084,41.5314890670001,"96104",26,"General Acute Care"
22,"Fresno Surgical Hospital","6125 North Fresno Street, Fresno, CA 93710","","http://www.fresnosurgicalhospital.com",-119.78216158,36.8249140890001,"93710",27,"General Acute Care"
23,"Trinity Hospital","60 b Easter Avenue, Weaverville, CA 96093","","http://www.mcmedical.org",-122.939656929,40.7380835070001,"96093",51,"General Acute Care"
24,"Pacific Orange Hospital, Llc","3350 West Ball Road, Anaheim, CA 92804","","http://www.anaheimregionalmc.com/",-118.007181145,33.815846992,"92804",101,"General Acute Care"
25,"Garden Grove Hospital and Medical Center","12601 Garden Grove Blvd., Garden Grove, CA 92643","","http://www.gardengrovehospital.com/",-117.913092884,33.7749859690001,"92643",167,"General Acute Care"
26,"West Anaheim Medical Center","3033 West Orange Avenue, Anaheim, CA 92804","","http://www.westanaheimmedctr.com/",-117.995073632,33.825385214,"92804",219,"General Acute Care"
27,"Oak Valley District Hospital (2-Rh)","350 South Oak Street, Oakdale, CA 95361","","http://www.oakvalleycares.org",-120.860996573,37.7576162720001,"95361",35,"General Acute Care"
28,"Kaweah Delta Rehabilitation Hospital","840 South Akers, Visalia, CA 93277","","http://www.kaweahdelta.org",-119.34793469,36.3226068330001,"93277",61,"General Acute Care"
29,"West Paces Medical Center","3200 Howell Mill Road, Atlanta, GA 30327","(404) 351-0351","",-84.427087362,33.8425244310001,"30327",294,"General Acute Care"
30,"Youth Villages - Inner Harbour Campus","4685 Dorsett Shoals Road, Douglasville, GA 30135","(770) 489-0406","http://www.youthvillages.org/what-we-do/residential-programs/inner-harbour-campus.aspx",-84.7339195439999,33.677688952,"30135",90,"Psychiatric"
31,"Washington County Hospital","958 u s Highway 64 East, Plymouth, NC 27962","(252) 793-4135","http://wch.hmccah.com/‎",-76.729283681,35.8627820830001,"27962",49,"General Acute Care"
32,"Doctor's Hospital at Deer Creek","815 s 10th St, Leesville, LA 71446","(337) 392-5088","http://www.dhdc.md",-93.268822748,31.1356353470001,"71446",10,"General Acute Care"
33,"Southeast Regional Medical Center","719 Avenue G, Kentwood, LA 70444","(985) 229-9193","",-90.5192469679999,30.937128638,"70444",14,"Long Term Care"
34,"Dequincy Memorial Hospital","110 w 4th St, Dequincy, LA 70633","(337) 786-1200","http://www.dequincyhospital.com",-93.436424441,30.452520835,"70633",19,"General Acute Care"
35,"Alvarado Hospital Medical Center","6645 Alvarado Road, San Diego, CA 92120","","http://www.alvaradohospital.com",-117.057681266,32.7768583530001,"92120",80,"General Acute Care"
36,"California Pacific Med Ctr-Davies Campus","601 Duboce Avenue, San Francisco, CA 94117","(415) 600-6000","http://www.cpmc.org",-122.434530253,37.768684282,"94117",223,"General Acute Care"
37,"California Pacific Medical Center - St. Luke's Campus","3555 Cesar Chavez Street, San Francisco, CA 94110","","http://www.cpmc.org",-122.420767899,37.747717858,"94110",228,"General Acute Care"
38,"California Rehabilitation Institute, Llc","2070 Century Park East, Los Angeles, CA 90067","(424) 522-7100","https://www.californiarehabinstitute.com/",-118.41186805,34.059102925,"90067",138,"General Acute Care"
39,"Doctors Medical Center-Behavioral Health Department","1501 Claus Road, Modesto, CA 95355","(209) 557-6300","http://www.dmc-modesto.com",-120.922231928,37.6658240080001,"95355",67,"General Acute Care"
40,"Southern California Hospital at Van Nuys d/p Aph","14433 Emelita Street, Van Nuys, CA 91401","(818) 787-1511","http://sch-vannuys.com/",-118.447490834,34.176900695,"91401",59,"General Acute Care"
41,"Department of State Hospital - Coalinga","24511 West Jayne Avenue, Coalinga, CA 93210","(559) 935-4300","http://www.dsh.ca.gov/Coalinga/default.asp",-120.240445956,36.1335482900001,"93210",1500,"Psychiatric"
42,"Mayers Memorial Hospital","43563 State Hwy. 299 E, Fall River Mills, CA 96028","","http://www.mayersmemorial.com",-121.424054412,41.023889361,"96028",121,"General Acute Care"
43,"Santa Monica - Ucla Medical Center & Orthopaedic Hospital","1250 16th Street, Santa Monica, CA 90404","","https://www.uclahealth.org/Santa-Monica/Pages/default.aspx",-118.486892397,34.027708681,"90404",265,"General Acute Care"
44,"Shasta County p h f","2640 Breslauer Way, Redding, CA 96001","","http://www.co.shasta.ca.us/index/hhsa_index/mental_wellness/adult_mh.aspx",-122.380488223,40.550135106,"96001",15,"Psychiatric"
45,"Telecare Santa Cruz Phf","2250 Soquel Ave, Santa Cruz, CA 95062","","http://www.telecarecorp.com/programs/148",-121.993947054,36.9833689210001,"95062",16,"Psychiatric"
46,"Columbia St Marys Hospital Ozaukee","13111 n Port Washington Rd, Mequon, WI 53097","(262) 243-7300","",-87.926216565,43.255979392,"53097",182,"General Acute Care"
47,"Ventura County Medical Center - Santa Paula  Hospital","825 North 10th Street, Santa Paula, CA 93060","","http://www.vchca.org/hospitals/santa-paula-hospital",-119.064914805,34.366446695,"93060",49,"General Acute Care"
48,"Northside Medical Center","100 Frist Court, Columbus, GA 31909","","",-84.951212572,32.5345247990001,"31909",100,"General Acute Care"
49,"Regency Hospital Company of Macon, Llc","535 Coliseum Drive, Macon, GA 31217","","",-83.6152774729999,32.847705239,"31217",34,"General Acute Care"
50,"Chatuge Regional Hospital","110 East Main Street, Hiawassee, GA 30546","","",-83.753915298,34.946576458,"30546",25,"Critical Access"
51,"Candler Hospital","5353 Reynolds Street, Savannah, GA 31412","","",-81.1001092509999,32.028166667,"31412",320,"General Acute Care"
52,"Murray Medical Center","707 Old Dalton Ellijay Road, Po Box 1406, Chatsworth, GA 30705","(706) 517-2031","http://www.murraymedical.org/",-84.7831754469999,34.780041,"30705",42,"General Acute Care"
53,"Tanner Medical Center - Carrollton","705 Dixie Street, Carrollton, GA 30117","","http://www.tanner.org/hospitals-and-facilities/hospitals/tanner-medical-center-carrollton",-85.0752261979999,33.569477717,"30117",181,"General Acute Care"
54,"Piedmont Fayette Hospital","1255 Highway 54 West, Fayetteville, GA 30214","(770) 719-7071","http://www.fayettehospital.org",-84.507989992,33.452147106,"30214",157,"General Acute Care"
55,"Roosevelt Warm Springs Rehabilitation Hospital","6135 Roosevelt Highway, Warm Springs, GA 31830","(706) 655-5001","",-84.694070009,32.8873263890001,"31830",52,"Rehabilitation"
56,"Riverwoods Behavioral Health System","223 Medical Center Drive, Riverdale, GA 30274","","",-84.390716705,33.582212957,"30274",75,"General Acute Care"
57,"Wesley Woods Geriatric Hospital","1821 Clifton Road, Ne, Atlanta, GA 30329","","https://www.emoryhealthcare.org/locations/offices/wesley-woods-geriatric-hospital.html",-84.3314099629999,33.804878451,"30329",82,"General Acute Care"
58,"Post Acute Medical Specialty Hospital of Milwaukee","5017 s 110th St, Greenfield, WI 53228","(414) 427-8282","http://www.warmsprings.org/our-facilities/hospitals/post-acute-medical-specialty-hospital-milwaukee/",-88.050969862,42.9536724600001,"53228",62,"Long Term Care"
59,"Thedacare Medical Center New London","1405 Mill St, New London, WI 54961","(920) 531-2000","https://www.thedacare.org/Hospitals-and-Clinics/ThedaCare-Medical-Center-New-London.aspx",-88.733700853,44.381156267,"54961",25,"Critical Access"
60,"Oakleaf Surgical Hospital","1000 Oakleaf Way, Altoona, WI 54720","(715) 831-8130","http://www.oakleafsurgical.com",-91.452710482,44.8157161880001,"54720",13,"General Acute Care"
61,"Centennial Medical Plaza","14200 e Arapahoe Road, Centennial, CO 80112","(303) 699-3000","",-104.823784754,39.5941827170001,"80112",-999,"General Acute Care"
62,"Children's Hospital Colorado at St Josephs Hosp","1830 Franklin Street, Denver, CO 80218","(720) 777-1360","",-104.968042951,39.745251791,"80218",-999,"Children"
63,"Children's Hospital Colorado at Memorial Hospital Central","1400 East Boulder Street, Colorado Springs, CO 80909","(719) 365-5000","",-104.799477406,38.8397997510001,"80909",-999,"Children"
64,"Children's Hospital Colorado at Parker Adventist Hospital","9395 Crown Crest Blvd, Parker, CO 80138","(720) 777-1350","",-104.770876035,39.548138813,"80138",-999,"General Acute Care"
65,"Healthsouth Rehabilitation Hospital of Littleton","1001 West Mineral Avenue, Littleton, CO 80120","(303) 334-1100","",-105.000098158,39.5745418340001,"80120",-999,"Rehabilitation"
66,"University of Colorado Hospital Anschutz Inpatient Pavilion","12605 East 16th Avenue, Aurora, CO 80045","(720) 848-0000","",-104.841122081,39.742304502,"80045",-999,"General Acute Care"
67,"Healthsouth Rehabilitation Hospital of Alexandria","104 North 3rd Street, Alexandria, LA 71301","(318) 449-1370","",-92.4523319639999,31.3176832830001,"71301",-999,"Rehabilitation"
68,"Houma-Amg Specialty Hospital","629 Dunn Street, Houma, LA 70360","(985) 274-0001","http://www.amghouma.com/‎",-90.71204306,29.5929878430001,"70360",40,"Long Term Care"
69,"Ochsner Medical Center","1516 Jefferson Highway, New Orleans, LA 70121","(504) 842-3000","https://www.ochsner.org/locations/ochsner-medical-center/",-90.145550567,29.961401752,"70121",473,"General Acute Care"
70,"Slidell -Amg Specialty Hosptial","1400 Lindberg Drive, Slidell, LA 70458","(985) 326-0440","",-89.753750162,30.2808042720001,"70458",-999,"Special"
71,"Lodi Memorial Hospital - West","800 So. Lower Sacramento Road, Lodi, CA 95242","","https://www.lodihealth.org/",-121.305906841,38.12385822,"95242",24,"General Acute Care"
72,"Tarzana Treatment Center","18646 Oxnard Street, Tarzana, CA 91356","","http://www.providence.org/tarzana.com",-118.539856202,34.1794458260001,"91356",60,"Psychiatric"
73,"St. Jude Medical Center","101 East Valencia Mesa Drive, Fullerton, CA 92835","","http://www.stjudemedicalcenter.org",-117.927462694,33.893548348,"92835",351,"General Acute Care"
74,"Mercy Hlth Sys Corp","1000 Mineral Point Ave, Janesville, WI 53548","(608) 756-6080","http://www.mercyhealthsystem.org",-89.03319042,42.6878459100001,"53548",240,"General Acute Care"
75,"Sauk Prairie Mem Hsptl","80 First St, Prairie Du Sac, WI 53578","(608) 643-3311","http://www.spmh.org",-89.720064545,43.2828539760001,"53578",36,"General Acute Care"
76,"Community Memorial Hsptl","W180 N8085 Town Hall Rd, Menomonee Falls, WI 53051","(262) 251-1000","http://www.communitymemorial.com",-88.1376054519999,43.1643527570001,"53051",237,"General Acute Care"
77,"Aurora Medical Center","36500 Aurora Drive, Summit, WI 53066","(262) 434-1000","http://www.aurorahealthcare.org",-88.467578653,43.0659120560001,"53066",117,"General Acute Care"
78,"Theda Clark Med Ctr","130 2nd St West Pavilion, Neenah, WI 54956","(920) 729-3100","http://www.thedacare.org",-88.453384929,44.1874895560001,"54956",182,"General Acute Care"
79,"Ministry Saint Josephs Hospital","611 St Joseph Ave, Marshfield, WI 54449","(715) 387-7850","http://www.stjosephs-marshfield.org",-90.1787418009999,44.677262097,"54449",504,"General Acute Care"
80,"Riverview Hsptl Assoc","410 Dewey Street, Wisconsin Rapids, WI 54495","(715) 423-6060","http://www.riverviewhospital.org",-89.829889438,44.3817580300001,"54495",99,"General Acute Care"
81,"Sonora Regional Medical Center d/p Snf (Unit 6 and 7)","179 S. Fairview Lane, Sonora, CA 95370","","http://www.sonoramedicalcenter.org/",-120.390795557,37.9796673370001,"95370",68,"General Acute Care"
82,"Santa Barbara Cottage Hospital","400 W. Pueblo Street, Santa Barbara, CA 93102","(805) 682-7111","http://www.cottagehealth.org/",-119.723809039,34.429466689,"93102",412,"General Acute Care"
83,"Gaylord Hospital","50 Gaylord Farm Rd, Wallingford, CT 6492","(203) 284-2800","http://www.gaylord.org/",-72.856761249,41.472884784,"6492",-999,"Chronic Disease"
84,"Century Hospital Medical Center","501 Church St, Century, FL 32535","","",-87.257597991,30.970393835,"32535",34,"General Acute Care"
85,"Scottsdale Healthcare Thompson Peak","7400 E. Thompson Peak Parkway, Scottsdale, AZ 85255","(480) 324-7000","http://www.shc.org",-111.922322403,33.67112932,"85255",92,"General Acute Care"
86,"Hebrew Rehabilitation Center","1200 Centre St, Boston, MA 2131","(617) 325-8000","http://www.hebrewseniorlife.org/healthcare",-71.131797808,42.2968005640001,"2131",455,"Rehabilitation"
87,"Lemuel Sattuck Hospital","170 Morton St, Boston, MA 2130","(617) 522-8110","http://www.mass.gov/eohhs/gov/departments/dph/programs/hospitals/shattuck/",-71.101742982,42.299580995,"2130",255,"Psychiatric"
88,"Alegent Health Community Memorial Hospital","631 n 8th St, Missouri Valley, IA 51555","(712) 642-2784","http://www.alegentcreighton.com/community-memorial",-95.8856184699999,41.5629436460001,"51555",25,"Critical Access"
89,"Comanche County Hospital","202 s Frisco Ave, Coldwater, KS 67029","(620) 582-2144","http://www.gpha.com",-99.332654648,37.2680794130001,"67029",12,"Critical Access"
90,"Fredonia Regional Hospital","1527 Madison, Fredonia, KS 66736","(620) 378-2121","http://www.fredoniaregionalhospital.org",-95.8141520189999,37.534067877,"66736",34,"Critical Access"
91,"Hebrew Rehabilitation Center at Dedham","7000 Great Meadow Road, Dedham, MA 2026","(617) 363-8913","http://www.hebrewseniorlife.org/dedham-mass-long-term-care",-71.195022427,42.266535768,"2026",220,"Rehabilitation"
92,"Westwood/Pembroke Health System Pembroke","199 Oak Street, Pembroke, MA 2359","(781) 826-8161","http://arbourhealth.com/organizations/pembroke-hospital/",-70.764458636,42.097623722,"2359",120,"Psychiatric"
93,"Walden Behavioral Care, Llc","9 Hope Avenue, Waltham, MA 2453","(781) 647-6727","http://www.waldenbehavioralcare.com/",-71.249339,42.369626,"2453",45,"Psychiatric"
94,"Promise Hospital of Overland Park","6509 w 103rd St, Overland Park, KS 66212","(913) 649-3701","http://www.promise-overlandpark.com/",-94.6625132299999,38.9398662350001,"66212",56,"Long Term Care"
95,"New England Sinai Hospital","150 York Street, Po Box Cs9105, Stoughton, MA 2072","(781) 344-0600","https://www.newenglandsinai.org/",-71.0988286259999,42.144626552,"2072",157,"Rehabilitation"
96,"Sturgis Hospital","916 Myrtle Ave, Sturgis, MI 49091","","http://www.sturgishospital.com",-85.407564797,41.7946286320001,"49091",84,"General Acute Care"
97,"Spectrum Health Pennock Hospital","1009 w Green St, Hastings, MI 49058","","http://www.spectrumhealth.org/pennock",-85.3028252409999,42.6447739010001,"49058",49,"General Acute Care"
98,"Mclaren Bay Region","1900 Columbus Ave, Bay City, MI 48708","","http://www.bayregional.org",-83.868396154,43.5882164270001,"48708",338,"General Acute Care"
99,"Forest Health Medical Center","135 s Prospect St, Ypsilanti, MI 48198","","http://www.fhmc-mi.com/",-83.600647596,42.2375710630001,"48198",68,"General Acute Care"
100,"Mary Free Bed Hospital & Rehabilitation Center","235 Wealthy Se, Grand Rapids, MI 49503","","http://www.maryfreebed.com",-85.662746247,42.956973878,"49503",119,"General Acute Care"
101,"Aspirus Keweenaw Hospital","205 Osceola, Laurium, MI 49913","","http://www.aspiruskeweenaw.org",-88.443500848,47.2387831730001,"49913",25,"General Acute Care"
102,"Dickinson County Memorial Hospital","1721 s Stephenson Ave, Iron Mountain, MI 49801","","http://www.dchs.org/",-88.044451237,45.809878058,"49801",96,"General Acute Care"
103,"Aspirus Ontonagon Hospital, Inc","601 s Seventh St, Ontonagon, MI 49953","","http://www.aspirus-ontonagon.org",-89.3016584599999,46.865595361,"49953",25,"General Acute Care"
104,"Otsego Memorial Hospital","825 n Center Ave, Gaylord, MI 49735","","http://www.myomh.org",-84.6749176019999,45.035327075,"49735",46,"General Acute Care"
105,"St Mary's of Michigan-Towne Ctr","4599 Towne Centre Rd, Saginaw, MI 48604","(989) 497-3000","http://www.stmarysofmichigan.org/find_a_location/index.php?i=86",-83.9649316859999,43.473972276,"48604",-999,"General Acute Care"
106,"Chippewa Co Montevideo Hosp","824 - 11th St N, Montevideo, MN 56265","(320) 269-6435","http://www.montevideomedical.com",-95.711810715,44.9544611980001,"56265",30,"Critical Access"
107,"Mayo Clinic Health Sys Austin","1000 First Drive Northwest, Austin, MN 55912","(507) 433-7351","http://mayoclinichealthsystem.org/locations/austin",-92.977649755,43.6744847590001,"55912",82,"General Acute Care"
108,"Mercy Hospital Joplin","100 Mercy Way, Joplin, MO 64804","(417) 556-3729","https://www.mercy.net/practice/mercy-hospital-joplin",-94.509709276,37.036513395,"64804",240,"General Acute Care"
109,"Cox Medical Centers South Hospital","3801 South National Avenue, Springfield, MO 65807","(417) 269-6000","http://www.coxhealth.com/body.cfm?id=1344",-93.27967732,37.1449462520001,"65807",86,"General Acute Care"
110,"Cox Medical Centers North Hospital","1423 North Jefferson Street, Springfield, MO 65802","(417) 269-3000","http://www.coxhealth.com/body.cfm?id=1343",-93.2899637789999,37.224782487,"65802",75,"General Acute Care"
111,"Kindred Hospital Northland","500 Nw  68th Streeet, Kansas City, MO 64118","(816) 420-6300","https://www.kindredhealthcare.com/locations/transitional-care-hospitals/kindred-hospital-northland",-94.587269163,39.219287764,"64118",35,"Long Term Care"
112,"Cameron Regional Medical Center","1600 East Evergreen St, Cameron, MO 64429","(816) 632-2101","http://www.cameronregional.org",-94.2180560309999,39.7304349510001,"64429",58,"General Acute Care"
113,"Centerpoint Medical Center","19600 East 39th Street, Independence, MO 64057","(816) 698-7000","http://www.centerpointmedical.com",-94.348903822,39.049544804,"64057",221,"General Acute Care"
114,"Crittenton Children's Center","10918 Elm Avenue, Kansas City, MO 64134","(816) 765-6600","https://www.saintlukeskc.org/locations/crittenton-childrens-center?utm_source=local-listing&utm_medium=organic&utm_campaign=website-link",-94.4811889009999,38.9243011040001,"64134",46,"Psychiatric"
115,"Research Medical Center","2316 East Meyer Boulevard, Kansas City, MO 64132","(816) 276-4000","http://researchmedicalcenter.com/",-94.5581250879999,39.008899844,"64132",487,"General Acute Care"
116,"Research Psychiatric Center","2323 East 63rd Street, Kansas City, MO 64130","(816) 444-8161","http://www.researchpsychiatriccenter.com",-94.560016538,39.011403301,"64130",100,"Psychiatric"
117,"St. Luke's Hospital of Kansas City","4401 Wornall Road, Kansas City, MO 64111","(816) 932-2000","https://www.saintlukeskc.org/locations/saint-lukes-hospital-kansas-city?utm_source=local-listing&utm_medium=organic&utm_campaign=website-link",-94.5901959189999,39.047433617,"64111",564,"General Acute Care"
118,"Truman Medical Center - Lakewood","7900 Lee's Summ it Road, Kansas City, MO 64139","(816) 404-7000","https://lakewoodhospitalkc.org/",-94.39435345,38.975391868,"64139",298,"General Acute Care"
119,"Nevada Regional Medical Center","800 South Ash Street, Nevada, MO 64772","(417) 667-3355","http://www.nrmchealth.com",-94.360485532,37.831184524,"64772",71,"General Acute Care"
120,"Community Hospital Fairfax","26136 Us Highway 59, Fairfax, MO 64446","(660) 686-2211","http://www.fairfaxmed.com",-95.3904538529999,40.338548749,"64446",18,"Critical Access"
121,"Bates County Memorial Hospital","615 West Nursery Street, Butler, MO 64730","(660) 200-7000","http://www.bcmhospital.com",-94.342885883,38.249028437,"64730",60,"General Acute Care"
122,"Barton County Memorial Hospital","29 Nw  1st Lane, Lamar, MO 64759","(417) 681-5100","http://www.bcmh.net",-94.300845266,37.505696436,"64759",25,"Critical Access"
123,"Belton Regional Medical Center","17065 S. 71 Highway, Belton, MO 64012","(816) 348-1200","http://www.beltonregionalmedicalcenter.com",-94.503001913,38.815813023,"64012",71,"General Acute Care"
124,"Northwest Mo Psychiatric Rehab Ctr","3505 Frederick Avenue, St. Joseph, MO 64502","(816) 387-2300","https://dmh.mo.gov/nmprc/",-94.811402598,39.778489236,"64502",-999,"Psychiatric"
125,"Freeman Hospital East","932 East 34th Street, Joplin, MO 64804","(417) 347-1111","http://www.freemanhealth.com/freeman-east-joplin-missouri",-94.5070068249999,37.0507526270001,"64804",72,"General Acute Care"
126,"Freeman Hospital West","1102 West 32nd Street, Joplin, MO 64804","(417) 347-1111","http://www.freemanhealth.com/freeman-west-joplin-missouri/",-94.5267980879999,37.0527312830001,"64804",72,"General Acute Care"
127,"Landmark Hospital of Joplin","2040 w . 32nd Street, Joplin, MO 64804","(417) 627-1309","http://www.landmarkhospitals.com",-94.5383814579999,37.053538244,"64804",30,"Long Term Care"
128,"Freeman Neosho Hospital","113 West Hickory Street, Neosho, MO 64850","(417) 451-1234","http://www.freemanhealth.com",-94.369467921,36.8669539570001,"64850",49,"Critical Access"
129,"St. Luke's Hospital","232 South Woods Mill Road, Chesterfield, MO 63017","(314) 434-1500","http://www.stlukes-stl.com",-90.503223535,38.651290813,"63017",493,"General Acute Care"
130,"Barnes-Jewish West County Hospital","12634 Olive Boulevard, Creve Coeur, MO 63141","(314) 996-8000","http://www.barnesjewishwestcounty.org",-90.467997971,38.6762228900001,"63141",113,"General Acute Care"
131,"St. Luke's Rehabilitation Hospital","14709 Olive Boulevard, Chesterfield, MO 63017","(314) 317-5700","https://www.kindredhealthcare.com/locations/inpatient-rehabilitation-hospitals/st-lukes-rehabilitation-hospital",-90.532178376,38.67570773,"63017",35,"Rehabilitation"
132,"Ranken Jordan a Pediatric Rehabilitation Center","11365 Dorsett Road, Maryland Heights, MO 63043","(314) 872-6400","http://www.rankenjordan.org",-90.415448509,38.709957914,"63043",34,"Rehabilitation"
133,"Ssm Rehabilitation Hospital at St. Mary's Health Center","1027 Bellevue Avenue, Richmond Heights, MO 63117","(314) 768-5202","http://www.ssm-select.com/",-90.3126995979999,38.633330883,"63117",35,"Rehabilitation"
134,"Christian Hospital Northeast-Northwest","11133 Dunn Road, St. Louis, MO 63136","(314) 653-5000","http://www.christianhospital.org",-90.240358059,38.7765816890001,"63136",482,"General Acute Care"
135,"Ssm Rehabilitation Hospital","12380 Depaul Drive, Bridgeton, MO 63044","(314) 447-9700","http://www.ssm-select.com/locations/inpatientrehab.aspx",-90.435165248,38.751768299,"63044",60,"Rehabilitation"
136,"Ste Genevieve County Memorial Hospital","800 Ste. Genevieve Drive, Ste Genevieve, MO 63670","(573) 883-2751","http://www.stegenevievehospital.org",-90.054654906,37.969342225,"63670",47,"Critical Access"
137,"Parkland Health Center-Bonne Terre","7245 Raider Road, Bonne Terre, MO 63628","(573) 358-1400","http://www.parklandhealthcenter.org",-90.5243640039999,37.908057016,"63628",3,"Critical Access"
138,"Southeasthealth Center of Ripley County","109 Plum Street, Doniphan, MO 63935","(573) 996-2141","https://www.sehealth.org/locations/health-center-ripley-county",-90.8258195719999,36.621297375,"63935",21,"General Acute Care"
139,"Ssm St. Joseph Health Center","300 1st Capitol Drive, St. Charles, MO 63301","(636) 947-5000","https://www.ssmhealth.com/locations/st-joseph-hospital-st-charles?utm_id=gmb18-13",-90.484620544,38.78090867,"63301",333,"General Acute Care"
140,"Ssm St. Joseph Health Center-Wentzville","500 Medical Drive, Wentzville, MO 63385","(636) 327-1100","http://www.ssmhealth.com/sjwz",-90.880721003,38.822150407,"63385",77,"General Acute Care"
141,"Ssm St. Joseph Hospital West","100 Medical Plaza, Lake St. Louis, MO 63367","(636) 625-5200","http://www.ssmhealth.com/hospitalwest",-90.7757467489999,38.802796668,"63367",116,"General Acute Care"
142,"Centerpointe Hospital","4801 Weldon Spring Parkway, St. Charles, MO 63304","(636) 441-7300","http://www.centerpointehospital.com",-90.671889256,38.7149685030001,"63304",104,"Psychiatric"
143,"Barnes-Jewish St. Peters Hospital","10 Hospital Drive, St. Peters, MO 63376","(636) 916-9000","http://www.bjsph.org/",-90.579615313,38.793605051,"63376",113,"General Acute Care"
144,"Fitzgibbon Hospital","2305 South 65 Highway, Marshall, MO 65340","(660) 886-7431","http://www.fitzgibbon.org",-93.213159133,39.0914981720001,"65340",60,"General Acute Care"
145,"Wright Memorial Hospital","191 Iowa Boulevard, Trenton, MO 64683","(660) 358-5700","https://www.saintlukeskc.org/locations/wright-memorial-hospital?utm_source=local-listing&utm_medium=organic&utm_campaign=website-link",-93.581639673,40.0678669850001,"64683",25,"Critical Access"
146,"Mercy Hospital Washington","901 East 5th Street, Washington, MO 63090","(636) 239-8000","http://www.mercy.net",-91.0021347249999,38.5525900860001,"63090",148,"General Acute Care"
147,"Hermann Area District Hospital","509 West 18th Street, Hermann, MO 65041","(573) 486-2191","http://www.hadh.org",-91.449585554,38.693078127,"65041",24,"Critical Access"
148,"Ozarks Community Hospital","2828 North National Avenue, Springfield, MO 65803","(417) 837-4000","http://www.ochonline.com",-93.2724018749999,37.24856378,"65803",15,"General Acute Care"
149,"Iron County Hospital","301 North Highway 21, Pilot Knob, MO 63663","(573) 546-1260","http://www.icmedcenter.org/",-90.644717949,37.623123891,"63663",15,"Critical Access"
150,"Salem Memorial District Hospital","35629 Hwy 72, Sullivan, MO 65560","(573) 729-6626","http://www.smdh.net",-91.569352382,37.66045595,"65560",55,"Critical Access"
151,"Washington County Memorial Hospital","300 Health Way, Potosi, MO 63664","(573) 438-5451","http://www.wcmhosp.org",-90.772665815,37.9259731140001,"63664",25,"Critical Access"
152,"Sullivan County Memorial Hospital","630 West 3rd Street, Milan, MO 63556","(660) 265-4212","http://www.scmhospital.org",-93.133814017,40.2016272860001,"63556",25,"Critical Access"
153,"Texas County Memorial Hospital","1333 S. Sam  Boulevard, Houston, MO 65483","(417) 967-3311","http://www.tcmh.org/",-91.961168535,37.316121685,"65483",66,"General Acute Care"
154,"Putnam County Memorial Hospital","1926 Oak Street, Unionville, MO 63565","(660) 947-2411","http://www.pcmhosp.com",-93.0056460179999,40.48274509,"63565",15,"Critical Access"
155,"Phelps County Regional Medical Center","1000 West Tenth Street, Rolla, MO 65401","(573) 364-9000","http://www.pcrmcphysiciansgroup.com/",-91.785982986,37.9524895330001,"65401",242,"General Acute Care"
156,"Saint Francis Medical Center","211 Saint Francis Drive, Cape Girardeau, MO 63703","(573) 331-3000","http://www.sfmc.net",-89.571144976,37.3035819400001,"63703",308,"General Acute Care"
157,"Perry County Memorial Hospital","434 North West Street, Perryville, MO 63775","(573) 547-2530","http://www.pchmo.org",-89.8656301509999,37.7308824240001,"63775",25,"Critical Access"
158,"Ellett Memorial Hospital","610 North Ohio Avenue, Appleton City, MO 64724","(660) 476-2111","http://www.ellettmemorial.com",-94.021254961,38.192474944,"64724",12,"Critical Access"
159,"Royal Oaks Hospital","307 North Main, Windsor, MO 65360","(660) 647-2182","http://compasshealthnetwork.org/about-us/royal-oaks-hospital/",-93.5185293169999,38.5341333120001,"65360",41,"Psychiatric"
160,"Lafayette Regional Health Center","1500 State Street, Lexington, MO 64067","(660) 259-2203","http://www.lafayetteregionalhealthcenter.com",-93.877277911,39.1897287740001,"64067",32,"Critical Access"
161,"Mercy Hospital Cassville","94 Main Street, Cassville, MO 65625","(417) 847-6000","http://www.mercy.net/northwestarar/practice/mercy-hospital-cassville",-93.872092837,36.674782572,"65625",18,"Critical Access"
162,"Ray County Memorial Hospital","904 Wollard Boulevard, Richmond, MO 64085","(816) 470-5432","http://www.raycountyhospital.com",-93.957421142,39.264377849,"64085",34,"Critical Access"
163,"Cedar County Memorial Hospital","1401 South Park Street El, El Dorado Springs, MO 64744","(417) 876-2511","http://www.cedarcountyhospital.org",-94.0170124089999,37.8602253180001,"64744",25,"Critical Access"
164,"Hedrick Medical Center","2799 North Washington Street, Chillicothe, MO 64601","(660) 646-1480","https://www.saintlukeskc.org/locations/hedrick-medical-center?utm_source=local-listing&utm_medium=organic&utm_campaign=website-link",-93.551016211,39.817141598,"64601",25,"Critical Access"
165,"Osage Beach Center for Cognitive Disorders","840 Passover Rd, Osage Beach, MO 65065","(573) 302-0319","http://www.osagebeachccd.com/",-92.628889333,38.134963509,"65065",14,"Psychiatric"
166,"Poplar Bluff Regional Medical Center","2620 n Westwood Blvd, Poplar Bluff, MO 63901","(573) 785-7721","http://www.poplarbluffregional.com/locations/poplar-bluff-rmc-oak-grove",-90.4432518899999,36.786910606,"63901",38,"General Acute Care"
167,"Mercy Orthopedic Hospital Springfield","3050 e Riverbluff Boulevard, Ozark, MO 65721","(417) 885-3000","https://www.mercy.net/practice/mercy-orthopedic-hospital-springfield",-93.234741947,37.0989533850001,"65721",48,"Special"
168,"Mercy Rehabilitation Hospital Springfield","5904 s Southwood Road, Springfield, MO 65804","(417) 227-9000","https://www.mercy.net/practice/mercy-rehabilitation-hospital-springfield",-93.235602098,37.1045860020001,"65804",60,"Rehabilitation"
169,"St. Anthony's Medical Center","10010 Kennerly Road, St. Louis, MO 63128","(314) 525-1000","http://www.stanthonysmedcenter.com",-90.380018547,38.5074234100001,"63128",767,"General Acute Care"
170,"Pioneer Community Hospital of Aberdeen","400 South Chestnut Street, Aberdeen, MS 39730","(662) 369-2455","http://www.pchaberdeen.com",-88.54024448,33.8201824110001,"39730",35,"General Acute Care"
171,"Beacham Memorial Hospital","205 North Cherry Street, Magnolia, MS 39652","(601) 783-2351","http://www.beachammemhos.com",-90.45959046,31.1458664000001,"39652",37,"General Acute Care"
172,"Merit Health Rankin","350 Crossgates Boulevard, Brandon, MS 39042","(601) 825-2811","http://www.merithealthrankin.com/",-90.0347478049999,32.2866429870001,"39042",134,"General Acute Care"
173,"Brentwood Behavioral Healthcare","3531 Lakeland Drive, Jackson, MS 39232","(601) 936-2024","http://www.brentwoodjackson.com",-90.100230044,32.3315968580001,"39232",107,"Psychiatric"
174,"Ms State Hospital","3550 Highway 468 West, Whitfield, MS 39193","(601) 351-8000","http://www.msh.state.ms.us",-90.070245357,32.2428057400001,"39193",1479,"Psychiatric"
175,"Alliance Health System","5000 Highway 39 North, Meridian, MS 39303","(601) 483-6211","http://www.alliancehealthcenter.com",-88.6759965679999,32.409301676,"39303",154,"General Acute Care"
176,"South Ms State Hospital","823 Highway 589, Purvis, MS 39475","(601) 794-0100","http://www.smsh.state.ms.us",-89.425213131,31.166602235,"39475",50,"Psychiatric"
177,"Missouri River Medical Center","1501 St Charles St, Fort Benton, MT 59442","(406) 622-3331","http://www.mrmcfb.org",-110.672275718,47.820404468,"59442",52,"Critical Access"
178,"Sidney Health Center","216 14th Ave Sw, Sidney, MT 59270","(406) 488-2100","http://www.sidneyhealth.org",-104.173150842,47.715088961,"59270",118,"Critical Access"
179,"Novant Health Huntersville Medical Center","10030 Gilead Road, Huntersville, NC 28078","(704) 316-4010","https://www.novanthealth.org/huntersville-medical-center.aspx",-80.860260895,35.406444182,"28078",91,"General Acute Care"
180,"Novant Health Matthews Medical Center","1500 Matthews Township Parkway, Matthews, NC 28106","(704) 384-6370","https://www.novanthealth.org/matthews-medical-center.aspx",-80.714078413,35.119984808,"28106",146,"General Acute Care"
181,"Novant Hospital Charlotte Orthopedic Hospital","1901 Randolph Rd, Charlotte, NC 28207","(704) 316-2000","https://www.novanthealth.org/charlotte-orthopedic-hospital.aspx",-80.823521516,35.210797601,"28207",80,"General Acute Care"
182,"Novant Health Rowan Medical Center","612 Mocksville Ave, Salisbury, NC 28144","(704) 210-5000","https://www.novanthealth.org/rowan-medical-center.aspx",-80.470707938,35.6812698420001,"28144",268,"General Acute Care"
183,"Cape Fear Valley - Bladen County Hospital","501 South Poplar Street, Elizabethtown, NC 28337","(910) 862-5179","http://www.capefearvalley.com/bladen/home.html",-78.608004487,34.622433926,"28337",58,"General Acute Care"
184,"Sentara Albemarle Medical Center","1144 North Road Street, Elizabeth City, NC 27906","(252) 384-4600","http://www.sentara.com/albemarle-north-carolina/default.aspx",-76.2179333289999,36.323596314,"27906",182,"General Acute Care"
185,"Carolinas Healthcare System Kings Mountain","706 West King Street, Kings Mountain, NC 28086","(704) 739-3601","http://www.carolinashealthcare.org/kings-mountain",-81.3570579549999,35.2415605350001,"28086",102,"General Acute Care"
186,"Vidant Duplin Hospital","401 North Main St, Kenansville, NC 28349","(910) 296-0941","https://www.vidanthealth.com/duplin/default.aspx",-77.961913309,34.965279679,"28349",101,"General Acute Care"
187,"Novant Health Medical Park Hospital","1950 South Hawthorne Rd, Winston Salem, NC 27103","(336) 718-0600","http://www.novanthealth.org",-80.2961944629999,36.0789451470001,"27103",22,"General Acute Care"
188,"Johnston Medical Center - Smithfield","509 N. Bright Leaf Blvd., Smithfield, NC 27577","(919) 934-8171","http://www.johnstonhealth.org/",-78.334980779,35.514414576,"27577",199,"General Acute Care"
189,"Mcdowell Hospital","430 Rankin Drive, Marion, NC 28752","(828) 659-5000","http://www.mcdhospital.org",-82.0284762799999,35.66339557,"28752",65,"General Acute Care"
190,"Margaret R. Pardee Memorial Hospital","800 North Justice Street, Hendersonville, NC 28791","(828) 696-1000","http://www.pardeehospital.org",-82.467080418,35.320314362,"28791",222,"General Acute Care"
191,"Haywood Regional Medical Center","262 Leroy George Drive, Clyde, NC 28721","(828) 456-7311","http://www.myhaywoodregional.com/",-82.9425088839999,35.5253812770001,"28721",190,"General Acute Care"
192,"Our Community Hospital","921 Junior High Road, Scotland Neck, NC 27874","(252) 826-4144","http://www.och-bltc.org",-77.4297186579999,36.1291421440001,"27874",100,"General Acute Care"
193,"High Point Regional Health System","601 North Elm Street, High Point, NC 27261","(336) 878-6000","http://www.highpointregional.com",-80.0133943169999,35.962823799,"27261",384,"General Acute Care"
194,"Davis Regional Medical Center","218 Old Mocksville Road, Statesville, NC 28687","(704) 873-0281","http://www.davisregional.com",-80.828714738,35.8184286740001,"28687",149,"General Acute Care"
195,"Iredell Memorial Hospital, Incorporated","557 Brookdale Drive, Statesville, NC 28677","(704) 878-4500","http://www.iredellmemorial.org",-80.8780683369999,35.799261529,"28677",247,"General Acute Care"
196,"Vidant Roanoke-Chowan Hospital","500 South Academy Street, Ahoskie, NC 27910","(252) 209-3000","https://www.vidanthealth.com/roanokechowan/dynamic-detail.aspx?id=449",-76.9952349819999,36.2854313030001,"27910",114,"General Acute Care"
197,"Blowing Rock Hospital","418 Chestnut Street, Blowing Rock, NC 28605","(828) 295-3136","https://apprhs.org/locations/blowing-rock-hospital",-81.6779148219999,36.1289168860001,"28605",100,"General Acute Care"
198,"Anson Community Hospital","500 Morven Rd, Wadesboro, NC 28170","(704) 694-5131","http://www.carolinashealthcare.org/anson-community-hospital",-80.075940023,34.961429174,"28170",147,"General Acute Care"
199,"Person Memorial Hospital","615 Ridge Rd, Roxboro, NC 27573","(336) 599-2121","http://www.personhospital.com",-78.984895239,36.4084534690001,"27573",110,"General Acute Care"
200,"Chatham Hospital, Inc.","475 Progress Boulevard, Siler City, NC 27344","(919) 663-2113","http://www.chathamhospital.org",-79.420855358,35.722954498,"27344",25,"General Acute Care"
201,"Murphy Medical Center","3990 East Us Hwy 64, Murphy, NC 28906","(828) 837-8161","http://www.murphymedical.org",-83.966662408,35.072712896,"28906",191,"General Acute Care"
202,"Southeastern Regional Medical Center","300 West 27th St, Lumberton, NC 28359","(910) 671-5000","http://www.srmc.org/main/",-79.0121295329999,34.636910793,"28359",452,"General Acute Care"
203,"Charles A. Cannon, Jr. Memorial Hospital","434 Hospital Drive, Linville, NC 28646","(828) 737-7000","https://apprhs.org/locations/cannon-memorial-hospital",-81.8893571149999,36.0603179240001,"28646",50,"General Acute Care"
204,"J. Arthur Dosher Memorial Hospital","924 Howe St, Southport, NC 28461","(910) 457-3800","http://www.dosher.org",-78.021590312,33.92966195,"28461",100,"General Acute Care"
205,"Carepartners Rehabilitation Hospital","68 Sweeten Creek Road, Asheville, NC 28813","(828) 274-2400","http://www.carepartners.org",-82.53131981,35.5622710920001,"28813",80,"Rehabilitation"
206,"Carolinas Healthcare System Blue Ridge","2201 South Sterling St, Morganton, NC 28655","(828) 580-5000","http://www.blueridgehealth.org/morganton.html",-81.6544922789999,35.726391173,"28655",315,"General Acute Care"
207,"Cape Fear Valley Medical Center","1638 Owen Drive, Fayetteville, NC 28302","(910) 615-6700","http://www.capefearvalley.com",-78.9330536849999,35.031838725,"28302",600,"General Acute Care"
208,"Kernersville Medical Center-Er","1750 Kernersville Medical Pkwy, Kernersville, NC 27284","(336) 564-4000","https://www.novanthealth.org/kernersville-medical-center.aspx",-80.0441503819999,36.0909603210001,"27284",-999,"General Acute Care"
209,"Carolinas Healthcare System - Anson","2301 Us Highway 74 West, Wadesboro, NC 28170","(704) 694-5131","http://www.carolinashealthcare.org/anson",-80.1100856209999,34.977721882,"28170",15,"General Acute Care"
210,"Carolinas Continuecare at Kings Mountain","706 West King Street, Kings Mountain, NC 28086","(980) 487-5520","http://continuecare.org/kings-mountain/",-81.3565487499999,35.241865106,"28086",28,"Long Term Care"
211,"Carolinas Rehabilitation - Northeast","487 Lake Concord Road, Concord, NC 28025","(704) 355-3398","http://www.carolinashealthcare.org/rehabilitation",-80.6008436509999,35.442816061,"28025",40,"Rehabilitation"
212,"Firsthealth Moore Regional Hospital - Hoke Campus","6408 Fayetteville Road, Raeford, NC 28376","(910) 878-6000","https://www.firsthealth.org/directory/hospitals-and-service-locations/firsthealth-moore-regional-hospital-hoke-campus",-79.149218661,35.02100061,"28376",8,"General Acute Care"
213,"Select Specialty Hospital - Greensboro","1200 North Elm Street, Greensboro, NC 27401","(336) 832-5700","http://greensboro.selectspecialtyhospitals.com/",-79.7860481129999,36.091017988,"27401",30,"General Acute Care"
214,"Mountrail County Medical Center","615 6th St Se, Stanley, ND 58784","(701) 628-2424","http://www.stanleyhealth.org",-102.380421892,48.311293849,"58784",11,"Critical Access"
215,"Oakes Community Hospital","1200 n 7th St, Oakes, ND 58474","(701) 742-3291","http://www.oakeshospital.com",-98.088894282,46.1503806630001,"58474",20,"Critical Access"
216,"North Dakota State Hospital","2605 Circle Dr, Jamestown, ND 58402","(701) 253-3650","http://www.nd.gov/dhs/locations/statehospital/",-98.684748531,46.8843327650001,"58402",140,"Psychiatric"
217,"Towner County Medical Center","Hwy 281 N, Cando, ND 58324","(701) 968-4411","http://tcmedcenter.org",-99.211136129,48.493022002,"58324",20,"Critical Access"
218,"Sanford Mayville","42 6th Avenue Se, Mayville, ND 58257","(701) 786-3800","http://www.unionhospital.com",-97.3169078659999,47.500743275,"58257",25,"Critical Access"
219,"Presentation Medical Center","213 Second Ave Ne, Rolla, ND 58367","(701) 477-3161","http://www.pmc-rolla.com",-99.615557842,48.8626424080001,"58367",25,"Critical Access"
220,"Chi St Alexius Health Williston","1301 15th Ave W, Williston, ND 58801","(701) 774-7400","http://www.mercy-williston.org",-103.646013698,48.1559507640001,"58801",25,"Critical Access"
221,"Prairie Saint John's","510 4th Street South, Fargo, ND 58103","(701) 476-7200","http://prairie-stjohns.com/",-96.785005262,46.8691952140001,"58103",110,"Psychiatric"
222,"Lincoln Regional Center","Folsom & West Prospector, Lincoln, NE 68509","(402) 471-4444","http://www.hhs.state.ne.us/beh/rc",-96.7339250059999,40.780780629,"68509",200,"Psychiatric"
223,"Lasting Hope Recovery Center","415 South 25th Avenue, Omaha, NE 68131","(402) 717-5300","http://www.chihealth.com/lasting_hope_recovery_center",-95.948519226,41.255864907,"68131",64,"Psychiatric"
224,"Box Butte General Hospital","2101 Box Butte Ave, Alliance, NE 69301","(308) 762-6660","http://www.bbgh.org",-102.869854944,42.116836542,"69301",25,"Critical Access"
225,"Avera Creighton Hospital","1503 Main St, Creighton, NE 68729","(402) 358-5700","http://www.avera.org/creighton/",-97.9168979359999,42.465918343,"68729",23,"Critical Access"
226,"Central Florida Behavioral Hospital","6601 Central Florida Pkwy, Orlando, FL 32821","(407) 370-0111","http://www.centralfloridabehavioral.com",-81.469593393,28.409114054,"32821",174,"Psychiatric"
227,"Florida Hospital Orlando","601 e Rollins St, Orlando, FL 32803","(407) 303-5600","https://www.floridahospital.com/orlando",-81.369996427,28.574414351,"32803",1368,"General Acute Care"
228,"Florida Hospital East Orlando","7727 Lake Underhill Rd, Orlando, FL 32822","(407) 303-8110","https://www.floridahospital.com/eastorlando",-81.281540116,28.5399802540001,"32822",295,"General Acute Care"
229,"Health Central","10000 w Colonial Dr, Ocoee, FL 34761","(407) 296-1000","http://www.healthcentral.org",-81.5276599279999,28.549662416,"34761",211,"General Acute Care"
230,"Select Specialty Hospital - Orlando North","2250 Bedford Rd, Orlando, FL 32803","(407) 303-7869","http://www.selectspecialtyhospitals.com/company/locations/orlando.aspx",-81.370441796,28.572296725,"32803",35,"Long Term Care"
231,"St Cloud Regional Medical Center","2906 17th St, Saint Cloud, FL 34769","(407) 892-2135","http://www.stcloudregional.com",-81.302806724,28.24362232,"34769",84,"General Acute Care"
232,"Bethesda Memorial Hospital","2815 s Seacrest Blvd, Boynton Beach, FL 33435","(561) 737-7733","http://www.bethesdaweb.com",-80.070563971,26.5050572330001,"33435",401,"General Acute Care"
233,"Good Samaritan Medical Center","1309 n Flagler Dr, West Palm Beach, FL 33401","(561) 655-5511","http://www.goodsamaritanmc.com",-80.0518812669999,26.7254617310001,"33401",333,"General Acute Care"
234,"West Palm Hospital","2201 45th St, West Palm Beach, FL 33407","(561) 842-6141","http://westpalmhospital.com/",-80.087872693,26.761323589,"33407",245,"General Acute Care"
235,"Kindred Hospital Palm Beaches","5555 w Blue Heron Blvd, Riviera Beach, FL 33418","(561) 840-0754","http://www.khthepalmbeaches.com/",-80.1104593429999,26.7829789510001,"33418",70,"Long Term Care"
236,"St Mary's Medical Center","901 45th St, West Palm Beach, FL 33407","(561) 844-6300","http://www.stmarysmc.com",-80.0624620309999,26.755871143,"33407",460,"General Acute Care"
237,"West Boca Medical Center","21644 State Rd 7, Boca Raton, FL 33428","(561) 488-8000","http://www.westbocamedctr.com",-80.199188577,26.3561962630001,"33428",195,"General Acute Care"
238,"West Palm Beach Va Medical Center","7305 n Military Trail, West Palm Beach, FL 33410","(800) 972-8262","http://www.westpalmbeach.va.gov/",-80.112475236,26.784928027,"33410",236,"Military"
239,"Florida Hospital North Pinellas","1395 s Pinellas Ave, Tarpon Springs, FL 34689","(727) 942-5000","http://www.fhnorthpinellas.com/",-82.75778618,28.132933816,"34689",168,"General Acute Care"
240,"Morton Plant Hospital","300 Pinellas St, Clearwater, FL 33756","(727) 462-7000","http://www.mortonplant.com",-82.803696838,27.952816747,"33756",613,"General Acute Care"
241,"St Petersburg General Hospital","6500 38th Ave N, Saint Petersburg, FL 33710","(727) 384-1414","http://www.stpetegeneral.com",-82.727538744,27.8054392110001,"33710",215,"General Acute Care"
242,"Florida Hospital Heartland Medical Center","4200 Sun n Lake Blvd, Sebring, FL 33872","(863) 314-4466","http://www.fhheartland.org/",-81.5092099839999,27.539751274,"33872",147,"General Acute Care"
243,"Oregon State Hospital- Salem","2600 Center Street Ne, Ne Salem, or 97301","","http://www.oregon.gov/oha/osh/Pages/about.aspx",-123.004577062,44.9390394760001,"97301",27,"Psychiatric"
244,"Florida Hospital Tampa","3100 e Fletcher Ave, Tampa, FL 33613","(813) 971-6000","http://www.uch.org",-82.4240611769999,28.0710959690001,"33613",365,"General Acute Care"
245,"James a Haley Veterans' Hospital","13000 Bruce b Downs Blvd, Tampa, FL 33612","(813) 972-2000","http://www.tampa.va.gov/",-82.429277019,28.064409101,"33612",93,"Military"
246,"Shriners Hospitals for Children - Tampa","12502 Usf Pine Dr, Tampa, FL 33612","(813) 972-2250","http://www.shrinershospitalsforchildren.org/Hospitals/Locations/Tam",-82.42284161,28.0615605200001,"33612",60,"General Acute Care"
247,"South Florida Baptist Hospital","301 n Alexander St, Plant City, FL 33563","(813) 757-1200","http://www.sjbhealth.org/home_south.cfm?id=587",-82.138929363,28.015678848,"33563",147,"General Acute Care"
248,"St Joseph's Hospital North","4211 Van Dyke Rd, Lutz, FL 33558","(813) 443-7000","http://stjosephsnorth.com/",-82.509675586,28.1295801160001,"33558",108,"General Acute Care"
249,"Springbrook Hospital","7007 Grove Rd, Brooksville, FL 34609","(352) 596-4306","http://springbrookhospital.org/",-82.484208672,28.5329355380001,"34609",66,"Psychiatric"
250,"Reception and Medical Center Hospital","7765 s County Rd 231, Lake Butler, FL 32054","(386) 496-6120","http://www.dc.state.fl.us",-82.357635252,29.988435252,"32054",133,"General Acute Care"
251,"Doctors Hospital of Sarasota","5731 Bee Ridge Rd, Sarasota, FL 34233","(941) 342-1100","http://www.doctorsofsarasota.com",-82.453350609,27.301957631,"34233",155,"General Acute Care"
252,"Cape Coral Hospital","636 Del Prado Blvd, Cape Coral, FL 33990","(239) 424-2000","http://www.leememorial.org",-81.942022498,26.6392051770001,"33990",291,"General Acute Care"
253,"Florida Hospital Deland","701 w Plymouth Ave, Deland, FL 32721","(386) 943-4522","http://www.fhdeland.org",-81.3173440369999,29.04365274,"32721",164,"General Acute Care"
254,"Florida Hospital Oceanside","264 s Atlantic Ave, Ormond Beach, FL 32176","(386) 231-3909","https://www.floridahospital.com/oceanside",-81.03686657,29.284636683,"32176",80,"Rehabilitation"
255,"Halifax Psychiatric Center-North","841 Jimmy Ann Dr, Daytona Beach, FL 32117","(386) 274-5333","http://www.halifaxhealth.org/behavioral-services",-81.068593274,29.21401967,"32117",30,"Psychiatric"
256,"Lake Wales Medical Center","410 s 11th St, Lake Wales, FL 33853","(863) 676-1433","http://www.lakewalesmedicalcenter.com",-81.5652762679999,27.8961999320001,"33853",160,"General Acute Care"
257,"Cape Canaveral Hospital","701 w Cocoa Beach Cswy, Cocoa Beach, FL 32931","(321) 799-7111","http://www.health-first.org",-80.6229851699999,28.3601248030001,"32931",150,"General Acute Care"
258,"Wuesthoff Medical Center-Rockledge","110 Longwood Ave, Rockledge, FL 32955","(321) 636-2211","http://www.wuesthoff.org",-80.722825441,28.334993796,"32955",298,"General Acute Care"
259,"Malcom Randall Va Medical Center","1601 s Archer Road, Gainesville, FL 32608","(800) 324-8387","http://www.northflorida.va.gov/",-82.344669083,29.637698481,"32608",222,"Military"
260,"Holy Cross Hospital","4725 n Federal Hwy, Fort Lauderdale, FL 33308","(954) 771-8000","http://www.holy-cross.com",-80.1199379029999,26.186461072,"33308",557,"General Acute Care"
261,"Memorial Hospital Miramar","1901 Sw  172nd Ave, Miramar, FL 33029","(954) 538-4800","http://www.mhs.net",-80.372751179,25.9908681520001,"33029",178,"General Acute Care"
262,"Depoo Hospital","1200 Kennedy Dr, Key West, FL 33040","(305) 294-5531","http://www.lkmc.com/locations/depoo-medical-building",-81.767407002,24.5641986040001,"33040",49,"General Acute Care"
263,"Plantation General Hospital","401 Nw 42nd Ave, Plantation, FL 33317","(954) 587-5010","http://www.plantationgeneral.com",-80.205267662,26.1264094490001,"33317",264,"General Acute Care"
264,"University Hospital and Medical Center","7201 n University Dr, Tamarac, FL 33321","(954) 721-2200","http://www.uhmchealth.com",-80.254154295,26.2121503280001,"33321",317,"General Acute Care"
265,"Mariners Hospital","91500 Overseas Hwy, Tavernier, FL 33070","(305) 434-3000","http://baptisthealth.net/en/facilities/mariners-hospital/Pages/default.aspx",-80.522305079,25.0061565440001,"33070",25,"General Acute Care"
266,"North Shore Medical Center","1100 Nw 95th St, Miami, FL 33150","(305) 835-6000","http://www.northshoremedical.com",-80.214704105,25.8597859490001,"33150",337,"General Acute Care"
267,"South Florida Evaluation and Treatment Center","18680 Sw 376 St, Florida City, FL 33034","(786) 349-6000","http://www.geocarellc.com/Locations/SouthFloridaEvaluationandTreatmentCenter.aspx",-80.4914297509999,25.4194064500001,"33034",249,"Psychiatric"
268,"South Miami Hospital","6200 Sw 73rd St, Miami, FL 33143","(786) 662-4000","http://www.baptisthealth.net",-80.294273177,25.702107773,"33143",436,"General Acute Care"
269,"West Marion Community Hospital","4600 Sw 46th Ct, Ocala, FL 34474","(352) 291-3000","http://ocalahealthsystem.com/about/west-marion-community-hospital.dot",-82.200081117,29.1411010300001,"34474",94,"General Acute Care"
270,"St Joseph Hospital Milford Med Ctr","442 Nashua Road, Milford, NH 3055","(603) 673-5623","http://www.stjosephhospital.com/About/Milford-Medical-Center",-71.6337901749999,42.829012903,"3055",-999,"General Acute Care"
271,"Centerstone of Florida","2020 26th Ave E, Bradenton, FL 34208","(941) 782-4299","http://www.manateeglens.org",-82.539686466,27.475655166,"34208",37,"Psychiatric"
272,"Athens Limestone Hospital","700 West Market Street, Athens, AL 35611","(256) 233-9292","http://www.athenslimestonehospital.com",-86.978407208,34.8041639300001,"35611",71,"General Acute Care"
273,"Va Medical Center - Birmingham","700 s 19th St S, Birmingham, AL 35233","(205) 933-8101","http://www.birmingham.va.gov/",-86.8013461209999,33.504448261,"35233",-999,"Military"
274,"Brookwood Medical Center","2010 Brookwood Medical Center Drive, Birmingham, AL 35259","(205) 877-1000","http://www.bwmc.com",-86.776253389,33.463730942,"35259",607,"General Acute Care"
275,"Children's Hospital of Alabama","1600 Seventh Avenue, South, Birmingham, AL 35233","(205) 638-9100","http://www.childrensal.org",-86.80515914,33.504048154,"35233",332,"Children"
276,"Noland Hospital Birmingham","50 Medical Park East Drive, Birmingham, AL 35261","(205) 838-5100","http://www.nolandhealth.com",-86.6860220629999,33.4149192100001,"35261",45,"Long Term Care"
277,"Select Specialty Hospital-Birmingham","800 Montclair Road, Birmingham, AL 35213","(205) 599-4595","http://www.selectspecialtyhospitals.com/company/locations/birmingh am.aspx",-86.777332621,33.4641039370001,"35213",38,"General Acute Care"
278,"University of Alabama Hospital","619 South 19th Street, Birmingham, AL 35233","(205) 934-4444","http://www.health.uab.edu",-86.8020353969999,33.505603292,"35233",1157,"General Acute Care"
279,"D. W. Mcmillan Memorial Hospital","1301 Belleville Avenue, Brewton, AL 36427","(251) 867-8061","http://www.dwmmh.org",-87.0734993039999,31.127033909,"36427",91,"General Acute Care"
280,"J. Paul Jones Hospital","317 Mcwilliams Avenue, Camden, AL 36726","(334) 682-4131","",-87.3002578359999,31.9975251480001,"36726",30,"General Acute Care"
281,"Washington County Hospital","14600 St. Stephens Avenue, Chatom, AL 36518","(251) 847-2223","http://www.wchnh.org",-88.235079893,31.459538148,"36518",25,"Critical Access"
282,"Bryan W. Whitfield Memorial Hospital","105 U.s. Highway 80, East, Demopolis, AL 36732","(334) 287-2423","",-87.8363988,32.504788531,"36732",99,"General Acute Care"
283,"Laurel Oaks Behavioral Health Center","700 East Cottonwood Road, Dothan, AL 36301","(334) 794-7373","http://www.laureloaksbhc.com",-85.3846011159999,31.203815637,"36301",38,"Psychiatric"
284,"Medical Center Enterprise","400 North Edwards Street, Enterprise, AL 36330","(334) 347-0584","http://www.mcehospital.com",-85.855369739,31.318772396,"36330",131,"General Acute Care"
285,"Evergreen Medical Center","101 Crestview Avenue, Evergreen, AL 36401","(251) 578-0166","http://www.evergreenmedical.org",-86.940483587,31.4307985720001,"36401",58,"General Acute Care"
286,"Fayette Medical Center","1653 Temple Avenue, North, Fayette, AL 35555","(205) 932-5966","http://www.dchsystem.com/body.cfm?id=36928",-87.8246889819999,33.70817814,"35555",61,"General Acute Care"
287,"Mountain View Hospital","3001 Scenic Highway, Gadsden, AL 35904","(256) 546-9265","http://www.mtnviewhospital.com",-86.0197660689999,34.072425745,"35904",68,"Psychiatric"
288,"O'bleness Memorial Hospital","55 Hospital Drive, Athens, OH 45701","(740) 592-9354","https://www.ohiohealth.com/obleness/",-82.1154339779999,39.327952657,"45701",132,"General Acute Care"
289,"Crestwood Medical Center","One Hospital Drive, Huntsville, AL 35801","(256) 429-5000","http://www.crestwoodmedcenter.com",-86.572171543,34.693611397,"35801",147,"General Acute Care"
290,"Behavioral Healthcare Center at Huntsville, Inc.","5315 Millennium Drive, Huntsville, AL 35806","(256) 964-6700","http://www.tnhealthmanagement.com/bhc/huntsville",-86.665696354,34.75317024,"35806",20,"Psychiatric"
291,"Fox Army Health Center: Lambert Rhonda w","4100 Goss Rd Sw, Huntsville, AL 35890","(256) 265-1000","",-86.660230887,34.6962142020001,"35890",-999,"Military"
292,"Mccullough-Hyde Memorial Hospital","110 North Poplar Street, Oxford, OH 45056","(513) 523-2111","http://www.mhmh.org",-84.7415369599999,39.5125961590001,"45056",70,"General Acute Care"
293,"Rmc Jacksonville","1701 South Pelham Road, Jacksonville, AL 36265","(256) 782-4538","http://www.jmchealth.com",-85.76355079,33.784932246,"36265",104,"General Acute Care"
294,"Walker Baptist Medical Center","3400 Highway 78, East, Jasper, AL 35502","(205) 715-5309","http://www.bhsala.com/home_walker.cfm?id=41",-87.235999582,33.8427289040001,"35502",267,"General Acute Care"
295,"Mercy Medical Center","Fountain Blvd, Springfield, OH 45504","(937) 523-1000","http://www.community-mercy.org/imaging_center_main.asp",-83.811341856,39.940974693,"45504",-999,"General Acute Care"
296,"Greater Regional Medical Center","1700 West Townline Road, Creston, IA 50801","(641) 782-7091","http://www.greaterregional.org",-94.3840950059999,41.0701663900001,"50801",25,"Critical Access"
297,"Healthsouth Rehabilitation Hospital of Montgomery","4465 Narrow Lane Road, Montgomery, AL 36116","(334) 284-7700","http://www.healthsouthmontgomery.com",-86.280709803,32.319106982,"36116",70,"Rehabilitation"
298,"Jackson Hospital and Clinic","1725 Pine Street, Montgomery, AL 36106","(334) 293-8000","http://www.jackson.org",-86.2853855449999,32.3669529960001,"36106",344,"General Acute Care"
299,"Lawrence Medical Center","202 Hospital St, Moulton, AL 35650","(256) 974-2200","http://www.lawrencemedicalcenter.com",-87.285310435,34.483414651,"35650",98,"General Acute Care"
300,"Coshocton County Memorial Hospital","1460 Orange Street, Coshocton, OH 43812","(740) 622-6411","http://www.ccmh.com",-81.847763668,40.2708463820001,"43812",56,"General Acute Care"
301,"Northport Medical Center","2700 Hospital Drive, Northport, AL 35476","(205) 759-7964","http://www.dchsystem.com",-87.570910898,33.23398145,"35476",204,"General Acute Care"
302,"Mizell Memorial Hospital","702 Main Street, Opp, AL 36467","(334) 493-3541","http://www.mizellmh.com",-86.254526923,31.2919582380001,"36467",99,"General Acute Care"
303,"Dale Medical Center","126 Hospital Avenue, Ozark, AL 36360","(334) 774-2601","http://www.dalemedical.org",-85.632088035,31.451576655,"36360",89,"General Acute Care"
304,"St. Vincent's St.clair","7063 Veterans Parkway, Pell City, AL 35125","(205) 338-3301","http://www.stvhs.com",-86.2774691019999,33.605110768,"35125",40,"General Acute Care"
305,"Bucyrus Community Hospital","629 North Sandusky Avenue, Bucyrus, OH 44820","(419) 562-4677","http://avitahealth.org/home",-82.976632127,40.8153398970001,"44820",25,"Critical Access"
306,"Galion Community Hospital","269 Portland Way South, Galion, OH 44833","(419) 468-4841","http://www.galionhospital.org",-82.802257211,40.730903767,"44833",50,"Critical Access"
307,"Red Bay Hospital","211 Hospital Road, Red Bay, AL 35582","(256) 356-9532","http://redbayhospital.net/",-88.1473250619999,34.458105759,"35582",25,"Critical Access"
308,"Helen Keller Memorial Hospital","1301 S.montgomery Avenue, Sheffield, AL 35660","(256) 386-4556","http://www.helenkeller.com",-87.700261461,34.745950151,"35660",185,"General Acute Care"
309,"Grace Hospital at Fairview","18101 Lorain Avenue, Cleveland, OH 44111","(216) 456-3880","http://www.gracehospital.org/",-81.824139117,41.4502446440001,"44111",29,"Long Term Care"
310,"Coosa Valley Medical Center","315 West Hickory Street, Sylacauga, AL 35150","(256) 401-4000","http://www.cvhealth.net",-86.2554875819999,33.164560226,"35150",163,"General Acute Care"
311,"Citizens Baptist Medical Center","604 Stone Avenue, Talladega, AL 35161","(205) 715-5309","http://www.bhsala.com/home_citizens.cfm?id=38",-86.0907833959999,33.440276821,"35161",122,"General Acute Care"
312,"Mary S. Harper Geriatric Psychiatry Center","201 University Boulevard, Tuscaloosa, AL 35402","(205) 759-0900","",-87.533981,33.219066,"35402",-999,"Psychiatric"
313,"Va Medical Center - Tuscaloosa","3701 Loop Rd E, Tuscaloosa, AL 35401","(205) 554-2000","http://www.tuscaloosa.va.gov/",-87.488317847,33.1899356690001,"35401",-999,"Military"
314,"Central Alabama Veterans Health Care System East Campus","2400 Hospital Rd, Tuskegee, AL 36083","(334) 727-0550","http://www.centralalabama.va.gov/",-85.712148611,32.445218316,"36083",-999,"Military"
315,"Bullock County Hospital","102 West Conecuh Avenue, Union Springs, AL 36089","(334) 738-2140","",-85.717009326,32.146635109,"36089",61,"General Acute Care"
316,"Wedowee Hospital","209 North Main Street, Wedowee, AL 36278","(256) 357-2111","http://www.wedoweehospital.org/",-85.485452466,33.3114042180001,"36278",34,"General Acute Care"
317,"Elmore Community Hospital","500 Hospital Drive, Wetumpka, AL 36092","(334) 567-4311","http://www.elmorehospital.com/",-86.1863964459999,32.552266972,"36092",69,"General Acute Care"
318,"University Hospitals of Cleveland","11100 Euclid Avenue, Cleveland, OH 44106","(216) 844-1000","http://www.uhhospitals.org/cleveland",-81.605095434,41.506142051,"44106",1032,"General Acute Care"
319,"Cleveland Clinic","9500 Euclid Avenue, Cleveland, OH 44195","(216) 444-2200","http://www.clevelandclinic.org",-81.620792669,41.5027509610001,"44195",1268,"General Acute Care"
320,"University Hospitals Ahuja Medical Center","3999 Richmond Road, Beachwood, OH 44122","(216) 593-5500","http://www.uhhospitals.org/ahuja/",-81.4946935689999,41.452198872,"44122",144,"General Acute Care"
321,"Parma Community General Hospital","7007 Powers Boulevard, Parma, OH 44129","(440) 743-4900","http://www.parmahospital.org",-81.731394677,41.3821198360001,"44129",348,"General Acute Care"
322,"Wayne Hospital","835 Sweitzer Street, Greenville, OH 45331","(937) 548-1141","http://www.waynehealthcare.org",-84.634741097,40.089291772,"45331",104,"General Acute Care"
323,"Elkhorn Valley Rehabilitation Hospital Llc","5715 East 2nd Street, Casper, WY 82609","(307) 265-0005","http://evrh.ernesthealth.com",-106.242370132,42.844225533,"82609",41,"Rehabilitation"
324,"Williamsport Regional Medical Center","700 High Street, Williamsport, PA 17701","(570) 321-2389","http://www.susquehannahealth.org/",-77.015966971,41.247010628,"17701",228,"General Acute Care"
325,"Wellspan Surgery and Rehabilitation Hospital","55 Monument Road, York, PA 17403","(717) 812-6100","https://www.wellspan.org/offices-locations/hospitals/wellspan-surgery-rehabilitation-hospital/",-76.71895855,39.926192787,"17403",-999,"Rehabilitation"
326,"Grady Memorial Hospital","561 West Central Avenue, Delaware, OH 43015","(740) 615-1000","https://www.ohiohealth.com/grady",-83.089252856,40.305514024,"43015",152,"General Acute Care"
327,"St Joseph's Children's Home","South 82240, 1419 Main St, Torrington, WY 82240","(307) 532-4197","http://www.stjoseph-wy.org/",-104.182849628,42.0590686250001,"82240",-999,"Psychiatric"
328,"Aspen Mountain Medical Center","4401 College Dr, Rock Springs, WY 82901","(307) 352-8900","http://aspenmountainmc.com/",-109.246393,41.6027609400001,"82901",16,"General Acute Care"
329,"Hosp Universitario Dr Ramon Ruiz Arnau","Ave Laurel - Urb Santa Juanita, Bayamon, PR 956","(787) 787-5151","",-66.154124489,18.367570404,"956",102,"General Acute Care"
330,"Puerto Rico Childrens Hospital","Carr. 2 Km 11.7 Interior Bo. Pajaros, Bayamon, PR 960","(787) 474-8282","http://www.puertoricochildrenshospital.com/home.php",-66.163448901,18.3968147580001,"960",150,"Children"
331,"Dublin Springs","7625 Hospital Drive, Dublin, OH 43016","(614) 717-1800","http://www.dublinsprings.com/",-83.170971659,40.1038159390001,"43016",72,"Psychiatric"
332,"First Hosp Panamericano - Cidra","Pr-787 Km 1.5, Cidra, PR 739","(787) 739-5555","http://www.hospitalpanamericano.com/",-66.1614012329999,18.176038959,"739",-999,"General Acute Care"
333,"Weisman Childrens Rehabilitation Hospital","92 Brick Road, Marlton, NJ 8053","(856) 489-4520","http://www.weismanchildrens.com",-74.918054591,39.8830950230001,"8053",18,"Children"
334,"John Brooks Recovery Center - Resident Drug Treatment (Men)","1315 Pacific Avenue, Atlantic City, NJ 8401","(609) 345-4035","http://jbrcnj.org/",-74.426406086,39.361028527,"8401",29,"Special"
335,"Atlanticare Regional Medical Center - Mainland Division","65 West Jimmie Leeds Road, Pomona, NJ 8240","(609) 652-3420","http://www.atlanticare.org/index.php/hospitals/armc-mainland-campus",-74.540072967,39.478982624,"8240",349,"General Acute Care"
336,"William b Kessler Memorial Hospital","600 South White Horse Pike, Hammonton, NJ 8037","(609) 561-6700","",-74.7725835589999,39.6322362600001,"8037",130,"General Acute Care"
337,"Bergen Regional Medical Center","230 East Ridgewood Avenue, Paramus, NJ 7652","(201) 967-4000","http://www.bergenregional.com",-74.0629917159999,40.956667775,"7652",510,"General Acute Care"
338,"Holy Name Hospital","718 Teaneck Road, Teaneck, NJ 7666","(201) 833-3000","http://www.holyname.org",-74.0104003289999,40.88299153,"7666",372,"General Acute Care"
339,"Saint Josephs Wayne Hospital","224 Hamburg Turnpike, Wayne, NJ 7470","(973) 942-6900","http://www.stjosephshealth.org/st-josephs-wayne-hospital",-74.20271983,40.947123557,"7470",229,"General Acute Care"
340,"Maryville Incorporated","1903 Grant Avenue, Williamstown, NJ 8094","(856) 629-0244","http://www.maryvillenj.org/",-75.035103877,39.635474581,"8094",68,"Special"
341,"Mount Carmel Guild Behavioral Healthcare System","1160 Raymond Boulevard, Newark, NJ 7102","(973) 596-4084","http://www.ccannj.com/mental_health_pro.php",-74.170737958,40.7371696590001,"7102",40,"Psychiatric"
342,"Clara Maass Medical Center","1 Clara Maass Drive, Belleville, NJ 7109","(973) 450-2002","http://www.barnabashealth.org/hospitals/clara_maass/index.html",-74.176321114,40.7856713480001,"7109",469,"General Acute Care"
343,"East Orange General Hospital","300 Central Avenue, East Orange, NJ 7018","(973) 672-8400","http://www.evh.org",-74.2136013959999,40.754603563,"7018",212,"General Acute Care"
344,"Inspira Medical Center Vineland","1505 West Sherman Avenue, Vineland, NJ 8360","(856) 641-6610","http://www.inspirahealthnetwork.org/?id=5280&sid=1",-75.058968984,39.445475716,"8360",335,"General Acute Care"
345,"Hudson Regional Hospital","55 Meadowlands Parkway, Secaucus, NJ 7094","(201) 392-3100","http://www.meadowlandshospital.org",-74.073236514,40.791830307,"7094",234,"General Acute Care"
346,"Marian Behavioral Health Center","2101 Court Street, Sioux City, IA 51104","(712) 279-2010","",-96.396444505,42.513473445,"51104",-999,"Psychiatric"
347,"Trinitas Hospital - New Point Campus","655 East Jersey Street, Elizabeth, NJ 7206","(908) 527-5000","http://www.trinitashospital.com",-74.197587997,40.659108964,"7206",60,"General Acute Care"
348,"Saint Clares Hospital - Sussex Campus","20 Walnut Street, Sussex, NJ 7461","(973) 702-2600","http://www.saintclares.org/saint-clare-s-health-center-sussex-new-jersey/",-74.603497895,41.2070241850001,"7461",-999,"General Acute Care"
349,"Newton Memorial Hospital","175 High Street, Newton, NJ 7860","(973) 579-8300","http://www.nmhnj.org/",-74.768442831,41.0576481510001,"7860",146,"General Acute Care"
350,"Care One","530 New Brunswick Avenue, Perth Amboy, NJ 8861","(732) 324-6090","http://www.care-one.com/locations/careone-at-raritan-bay-medical-center/",-74.281102652,40.518962532,"8861",26,"Long Term Care"
351,"Cancer Institute of New Jersey","195 Little Albany Street, New Brunswick, NJ 8901","(732) 235-2465","http://www.cinj.org/",-74.4491258049999,40.496357131,"8901",-999,"Special"
352,"Saint Francis Medical Center","601 Hamilton Avenue, Trenton, NJ 8629","(609) 599-5000","http://www.stfrancismedical.com",-74.74165161,40.216522184,"8629",238,"General Acute Care"
353,"Greystone Park Psychiatric Hospital","59 Koch Ave, Morris Plains, NJ 7950","(973) 538-1800","http://www.state.nj.us/humanservices/dmhs/oshm/gpph/",-74.510254974,40.8389665940001,"7950",450,"Psychiatric"
354,"k Hovnanian Childrens Hospital","1945 State Route 33, Neptune, NJ 7753","(732) 775-5500","http://www.khovnanianchildrenshospital.com/KHCH/",-74.039628383,40.208187939,"7753",-999,"Children"
355,"Healthsouth Rehabilitation Hospital of Toms River","14 Hospital Drive, Toms River, NJ 8755","(732) 244-3100","http://www.rehabnjtomsriver.com/",-74.217409732,39.9626114210001,"8755",92,"Rehabilitation"
356,"Saint Barnabas Behavioral Health Center","1691 United States Highway 9, Toms River, NJ 8755","(732) 914-1688","http://www.barnabashealth.org/Barnabas-Health-Behavioral-Health-Center.aspx",-74.21490921,40.0121504680001,"8755",40,"Psychiatric"
357,"Ocean Medical Center","425 Jack Martin Boulevard, Brick, NJ 8724","(732) 840-2200","http://www.oceanmedicalcenter.com/OMC/",-74.1314468429999,40.0771830080001,"8724",281,"General Acute Care"
358,"Atlantic Rehabilitation Institute","95 Mt Kemble Avenue, Morristown, NJ 7962","(973) 971-6530","http://www.atlantichealth.org/morristown/our+services/physical+rehabilitation/",-74.4891805359999,40.789620917,"7962",38,"Rehabilitation"
359,"Carepoint Health - Bayonne Medical Center","29 East 29th St, Bayonne, NJ 7002","(201) 858-5000","https://www.carepointhealth.org/bayonne-medical-center",-74.112713941,40.668303693,"7002",261,"General Acute Care"
360,"Carepoint Health-Christ Hospital","176 Palisade Ave, Jersey City, NJ 7306","(201) 795-8200","https://www.carepointhealth.org/christ-hospital",-74.0499582689999,40.734267624,"7306",358,"General Acute Care"
361,"Children's Specialized Hospital","200 Somerset Street, New Brunswick, NJ 8901","(732) 258-7050","http://www.childrens-specialized.org",-74.451690392,40.494825098,"8901",68,"Children"
362,"Specialty Hospital of Central Jersey","600 River Avenue,   4 West, Lakewood, NJ 8701","(732) 806-3207","http://www.acutecarehs.com/",-74.2190055949999,40.073065031,"8701",50,"Long Term Care"
363,"East Mountain Hospital","40 East Mountain Road, Belle Mead, NJ 8502","(908) 281-1500","http://eastmountainhospital.com/",-74.685196236,40.467623136,"8502",16,"Psychiatric"
364,"Hackensack-Umc at Pascack Valley","250 Old Hook Road, Westwood, NJ 7675","(201) 383-1074","http://www.hackensackumcpv.com/",-74.015681376,40.9856164440001,"7675",128,"General Acute Care"
365,"Healthsouth Rehabilitation Hospital of Vineland","1237 w Sherman Avenue, Vineland, NJ 8360","(856) 696-7100","http://www.healthsouthvineland.com/",-75.052593407,39.445161891,"8360",30,"Rehabilitation"
366,"Hudson County Meadowview Psychiatric Hospital","595 County Avenue, Secaucus, NJ 7094","(201) 369-5252","http://www.hudsoncountynj.org/hudson-county-meadowview-psychiatric-hospital/",-74.0600059889999,40.7788763350001,"7094",174,"Psychiatric"
367,"Cambridge Behavorial Hospital","66755 State Street, Cambridge, OH 43725","(813) 978-1933","http://www.cbhohio.com/",-81.582060309,40.066895839,"43725",66,"Psychiatric"
368,"Southeastern Ohio Regional Medical Center","1341 North Clark Street, Cambridge, OH 43725","(740) 439-8112","http://www.seormc.org",-81.5773923359999,40.0414731870001,"43725",189,"General Acute Care"
369,"Clinica Santa Rosa","Veterans Avenue, Guayama, PR 785","(787) 864-0101","",-66.106166118,17.980770922,"785",86,"General Acute Care"
370,"Children's Hospital Mc - College Hill","5642 Hamilton Avenue, Cincinnati, OH 45224","(513) 636-4200","https://www.cincinnatichildrens.org/service/p/psychiatry/programs",-84.5438764479999,39.1926339440001,"45224",74,"Psychiatric"
371,"Jewish Hospital, Llc","4777 East Galbraith Road, Cincinnati, OH 45236","(513) 686-3000","http://e-mercy.com/jewish-hospital.aspx",-84.38094165,39.2059509790001,"45236",209,"General Acute Care"
372,"Hosp Andres Grillasca Inc (Centro De Oncologica Avanzada)","Centro Medico De Ponce, Ponce, PR 733","(787) 848-0800","",-66.593130348,18.0332502100001,"733",49,"Special"
373,"Drake Center for Post-Acute Care, Llc","2139 Auburn Avenue, Cincinnati, OH 45219","(513) 418-2624","http://uchealth.com/danieldrakecenter/locations-directions/christ-hospital-mt-auburn/",-84.510407282,39.121299407,"45219",30,"Long Term Care"
374,"Cincinnati Va Medical Center","3200 Vine Street, Cincinnati, OH 45220","(513) 861-3100","http://www.cincinnati.va.gov/",-84.508194552,39.1394136430001,"45220",268,"Military"
375,"Tmc Healthcare","5301 East Grant Road, Tucson, AZ 85712","(520) 327-5460","http://www.tmcaz.com",-110.879298849,32.2523042510001,"85712",541,"General Acute Care"
376,"Bay Park Community Hospital","2801 Bay Park Drive, Oregon, OH 43616","(419) 690-7900","http://www.promedica.org",-83.4804910559999,41.6212019920001,"43616",91,"General Acute Care"
377,"Flower Hospital","5200 Harroun Road, Sylvania, OH 43560","(419) 824-1819","http://www.promedica.org",-83.6913462749999,41.7089406530001,"43560",559,"General Acute Care"
378,"Regency Hospital of Toledo","5220 West Alexis Road, Sylvania, OH 43560","(419) 318-5700","http://toledo.regencyhospital.com/",-83.669070275,41.7191904520001,"43560",45,"Long Term Care"
379,"Mercy St Anne Hospital","3404 Sylvania Avenue, Toledo, OH 43623","(419) 407-2400","http://www.mercyweb.org",-83.625681529,41.693599299,"43623",128,"General Acute Care"
380,"Christus St. Vincent Physicians Medical Center","2990 Rodeo Park Drive East, Santa Fe, NM 87505","(505) 428-5400","http://www.stvin.org/christus-st-vincent-physicians-medical-center",-105.963295779,35.633465363,"87505",19,"General Acute Care"
381,"Holy Cross Hospital","1399 Weimer Road, Taos, NM 87571","(575) 758-8883","http://www.taoshospital.org",-105.57688812,36.3685436600001,"87571",29,"General Acute Care"
382,"Gallup Indian Medical Center","516 Nizhoni Boulevard, Gallup, NM 87301","(505) 722-1000","https://www.ihs.gov/navajo/healthcarefacilitiegallup/s/",-108.729880487,35.507645859,"87301",99,"General Acute Care"
383,"Doctor Dan c Trigg Memorial Hospital","301 East Miel De Luna Avenue, Tucumcari, NM 88401","(575) 461-7007","https://danctrigg-memorial-hospital.phs.org/Pages/default.aspx",-103.722574505,35.1566324400001,"88401",25,"General Acute Care"
384,"Gilbert Hospital","5656 South Power Road, Gilbert, AZ 85295","(480) 984-2000","http://www.gilberter.com",-111.687427336,33.313908692,"85295",19,"General Acute Care"
385,"Miners Colfax Medical Center","203 Hospital Drive, Raton, NM 87740","(575) 445-3661","http://www.minershosp.com",-104.442110248,36.8626589900001,"87740",25,"Critical Access"
386,"Vibra Rehabilitation Hospital of Lake Travis","2000 Medical Drive, Lakeway, TX 78734","(512) 263-4500","http://www.vrhlaketravis.com/",-97.970102228,30.3451048360001,"78734",36,"Rehabilitation"
387,"Dini-Townsend Hospital at Northern Nevada Adult Mental Health Services","480 Galleti Way, Sparks, NV 89431","(775) 688-2001","http://dpbh.nv.gov/Programs/ClinicalBehavioralServ/Clinical_Behavioral_Services_-_Home/",-119.774830933,39.5315412250001,"89431",30,"Psychiatric"
388,"Garfield Memorial Hospital","200 North 400 East, Panguitch, UT 84759","(435) 676-8811","http://www.ihc.com/hospitals/garfield",-112.426922269,37.826428741,"84759",41,"General Acute Care"
389,"Healthsouth Rehabilitation Hospital of Las Vegas","1250 s Valley View Blvd, Las Vegas, NV 89102","(702) 877-8898","http://www.healthsouthlasvegas.com/",-115.194223439,36.1567317720001,"89102",79,"Rehabilitation"
390,"Horizon Specialty Hospital - Las Vegas","640 Desert Lane, Las Vegas, NV 89106","(702) 382-3155","http://www.horizonspecialtyhosp.com/",-115.162811854,36.1630915430001,"89106",199,"Long Term Care"
391,"Riverview Health Institute","One Elizabeth Place, Dayton, OH 45417","(937) 222-5390","http://www.riverviewhealthinstitute.com/",-84.19940099,39.74824808,"45417",12,"General Acute Care"
392,"Parkview Lagrange Hospital","207 n Townline Rd, Lagrange, in 46761","(260) 463-9000","http://www.parkview.com",-85.4261370569999,41.6458040900001,"46761",25,"Critical Access"
393,"Sycamore Medical Center","4000 Miamisburg-Centerville Road, Miamisburg, OH 45342","(937) 866-0551","http://www.ketteringhealth.org/sycamore/",-84.249272494,39.637702931,"45342",108,"General Acute Care"
394,"Las Vegas - Amg Specialty Hospital","4015 South Mcleod Drive, Las Vegas, NV 89121","(702) 433-2200","http://amgvegas.com/",-115.110384599,36.1165861580001,"89121",24,"Long Term Care"
395,"Good Samaritan Hospital","2222 Philadelphia Drive, Dayton, OH 45406","(937) 278-2612","http://www.goodsamdayton.com",-84.23333439,39.7875513380001,"45406",491,"General Acute Care"
396,"Morrow County Hospital","651 West Marion Road, Mount Gilead, OH 43338","(419) 949-3180","http://www.morrowcountyhospital.com",-82.850406603,40.547981168,"43338",22,"Critical Access"
397,"Saint Elizabeths Hospital","1100 Alabama Avenue Se, Washington, DC 20032","(202) 562-4000","http://dmh.dc.gov/page/saint-elizabeths-hospital",-76.988255269,38.847927868,"20032",292,"Psychiatric"
398,"Bridgepoint Hospital Capitol Hill","700 Constitution Avenue Ne, Washington, DC 20002","(202) 546-5700","http://www.bridgepointhealthcare.com/contact-us/",-76.995863417,38.8929214200001,"20002",177,"Long Term Care"
399,"Sana Behavioral Health - Las Vegas","5975 West Twain Avenue, Las Vegas, NV 89103","(801) 559-7764","http://www.redrockhospital.com",-115.223355277,36.1212914930001,"89103",21,"Psychiatric"
400,"Ohiohealth Shelby Hospital","199 West Main Street, Shelby, OH 44875","(419) 342-5015","https://www.ohiohealth.com/shelby/",-82.674175077,40.882406732,"44875",40,"Critical Access"
401,"Adena Regional Medical Center","272 Hospital Road, Chillicothe, OH 45601","(740) 779-7500","http://www.adena.org",-82.9676161089999,39.3964977740001,"45601",261,"General Acute Care"
402,"Banner Heart Hospital","6750 E. Baywood Ave., Mesa, AZ 85206","","http://www.bannerhealth.com/Locations/Arizona/Banner+Behavioral +Health",-111.686492314,33.411692068,"85206",111,"General Acute Care"
403,"Jackson Hospital","4250 Hospital Dr, Marianna, FL 32446","(850) 718-2628","http://www.jacksonhosp.com",-85.241314825,30.786844413,"32446",62,"General Acute Care"
404,"Dupont Hospital Llc","2520 e Dupont Rd, Fort Wayne, in 46825","(260) 416-3023","http://www.thedupontdifference.com",-85.108930621,41.17526916,"46825",131,"General Acute Care"
405,"Orthopaedic Hospital at Parkview North Llc","11130 Parkview Circle Dr, Fort Wayne, in 46845","(260) 672-4050","http://www.parkview.com",-85.1006695739999,41.189577579,"46845",37,"General Acute Care"
406,"Silver Springs Rural Health Centers","3595 Hwy 50 West, Silver Springs, NV 89429","","",-119.279279111,39.3955395770001,"89429",-999,"General Acute Care"
407,"Southern Hills Hospital and Medical Center","9300 West Sunset Road, Las Vegas, NV 89148","(702) 880-2100","http://southernhillshospital.com",-115.295239233,36.072656244,"89148",139,"General Acute Care"
408,"Southern Nevada Adult Mental Health Services","6161 West Charleston Boulevard, Las Vegas, NV 89146","(702) 486-6000","http://www.mhds.state.nv.us",-115.226609103,36.1574556680001,"89146",190,"Psychiatric"
409,"Margaret Mary Health","321 Mitchell Ave, Batesville, in 47006","(812) 934-6624","http://www.mmch.org",-85.222526188,39.3050248960001,"47006",25,"Critical Access"
410,"Community Mental Health Center Inc","285 Bielby Rd, Lawrenceburg, in 47025","(812) 537-1302","http://www.cmhcinc.org",-84.882533918,39.109798476,"47025",16,"Psychiatric"
411,"Select Specialty Hospital-Quad Cities","1111 West Kimberly Road, Davenport, IA 52806","(319) 391-2020","http://www.selectspecialtyhospitals.com/company/locations/quadciti es.aspx",-90.5890272889999,41.5591535990001,"52806",50,"Long Term Care"
412,"Daviess Community Hospital","1314 e Walnut St, Washington, in 47501","(812) 254-2760","http://www.dchosp.org",-87.159752398,38.659613843,"47501",80,"General Acute Care"
413,"Parkview Noble Hospital","401 Sawyer Rd, Kendallville, in 46755","(260) 347-8700","http://www.parkview.com",-85.2961583109999,41.4483403450001,"46755",31,"General Acute Care"
414,"Tahoe Pacific Hospitals - Meadows","10101 Double r Boulevard, Reno, NV 89521","(775) 355-5600","http://www.lifecare-hospitals.com/hospital/tahoepacific",-119.759590788,39.4363083270001,"89521",60,"Long Term Care"
415,"Mercy Tiffin Hospital","45 St Lawrence Drive, Tiffin, OH 44883","(419) 455-7000","http://www.mercyweb.org/mercy_tiffin.aspx",-83.2162628139999,41.103767023,"44883",120,"General Acute Care"
416,"Deaconess Hospital Inc","600 Mary St, Evansville, in 47747","(812) 450-5000","http://www.deaconess.com",-87.571106776,37.983739541,"47747",509,"General Acute Care"
417,"Evansville State Hospital","3400 Lincoln Avenue, Evansville, in 47714","(812) 469-6800","http://www.IN.gov",-87.5015537079999,37.9728535570001,"47714",168,"Psychiatric"
418,"Hamilton Center Inc","620 8th Ave, Terre Haute, in 47804","(812) 231-8285","http://www.hamiltoncenter.org",-87.409983622,39.485410862,"47804",16,"Psychiatric"
419,"Pioneer Valley Hospital","3460 South Pioneer Parkway, West Valley City, UT 84120","(801) 964-3100","http://www.pioneervalleyhospital.com",-111.990880383,40.6978727910001,"84120",101,"General Acute Care"
420,"Provo Canyon Behavioral Hospital","1350 East 750 North, Orem, UT 84097","(801) 227-2100","http://www.pcbh.com/",-111.663795605,40.3106690220001,"84097",-999,"Psychiatric"
421,"Milford Valley Memorial Hospital","850 North Main Street, Milford, UT 84751","(435) 387-2411","http://beaver.utah.gov/index.aspx?NID=98",-113.010658259,38.4018090600001,"84751",23,"Critical Access"
422,"South Jordan Health Center","5126 West Daybreak Parkway, South Jordan, UT 84095","","",-112.013352673,40.541743873,"84095",-999,"Critical Access"
423,"Mountain Point Medical Center","3000 North Triumph Blvd, Lehi, UT 84043","(385) 345-3000","http://www.mountainpointmedicalcenter.com/",-111.878540077,40.425339998,"84043",-999,"General Acute Care"
424,"Moab Regional Hospital","450 West Williams Way, Moab, UT 84532","(435) 259-7191","http://www.amhmoab.org",-109.563613143,38.578735152,"84532",19,"Critical Access"
425,"Elkhart General Hospital","600 East Blvd, Elkhart, in 46514","(574) 294-2621","http://www.egh.org",-85.993270563,41.6793473500001,"46514",270,"General Acute Care"
426,"Oaklawn Psychiatric Center Inc","330 Lakeview Dr, Goshen, in 46527","(574) 533-1234","http://www.oaklawn.org",-85.839485402,41.6036041190001,"46527",16,"Psychiatric"
427,"Indiana University Health Ball Memorial Hospital","2401 University Ave, Muncie, in 47303","(765) 747-3111","http://www.iuhealth.org",-85.415555943,40.196777534,"47303",379,"General Acute Care"
428,"Indiana University Health Morgan Hospital Inc","2209 John r Wooden Dr, Martinsville, in 46151","(765) 349-6938","http://www.iuhealth.org/morgan/",-86.404838995,39.42589574,"46151",92,"General Acute Care"
429,"Brentwood Meadows Llc","4488 Roslin Rd, Newburgh, in 47630","(812) 858-7200","http://www.brentwoodmeadows.com",-87.331528503,37.992909968,"47630",48,"Psychiatric"
430,"Community Hospital","901 Macarthur Blvd, Munster, in 46321","(219) 836-1600","http://www.comhs.org",-87.505909606,41.5506175090001,"46321",458,"General Acute Care"
431,"Methodist Hospitals Inc","600 Grant St, Gary, in 46402","(219) 886-4642","http://www.methodisthospitals.org",-87.357670334,41.599559432,"46402",536,"General Acute Care"
432,"Franciscan St Elizabeth Health - Lafayette East","1701 s Creasy Ln, Lafayette, in 47905","(765) 502-4334","http://www.ste.org",-86.834549059,40.3940202320001,"47905",186,"General Acute Care"
433,"Allen Memorial Hospital","1825 Logan Avenue, Waterloo, IA 50703","(319) 235-3941","http://www.allenhospital.org",-92.3389374699999,42.5267548160001,"50703",12,"General Acute Care"
434,"Kindred Hospital- Indianapolis South","607 s Greenwood Springs Dr, Greenwood, in 46143","(317) 888-8155","http://www.khindysouth.com/",-86.075593297,39.629988801,"46143",52,"Long Term Care"
435,"Indiana University Health Tipton Hospital Inc","1000 s Main St, Tipton, in 46072","(765) 675-8500","http://www.iuhealth.org",-86.042162253,40.2719303540001,"46072",25,"Critical Access"
436,"Franciscan St Elizabeth Health - Lafayette Central","1501 Hartford St, Lafayette, in 47904","(765) 502-4334","http://www.ste.org",-86.881446211,40.427286859,"47904",302,"General Acute Care"
437,"Marion General Hospital","441 n Wabash Ave, Marion, in 46952","(765) 660-6000","http://www.mgh.net",-85.664163259,40.5636952030001,"46952",97,"General Acute Care"
438,"Community Hospital of Bremen Inc","1020 High Rd, Bremen, in 46506","(574) 546-2211","http://www.bremenhospital.com",-86.1588497229999,41.456467767,"46506",24,"Critical Access"
439,"Doctors Neuropsychiatric Hospital","417 s Whitlock St, Bremen, in 46506","(574) 546-0330","http://www.physicianshospitalsystem.net",-86.150319348,41.443335034,"46506",37,"Psychiatric"
440,"Parkview Huntington Hospital","2001 Stults Rd, Huntington, in 46750","(260) 355-3000","http://www.parkview.com",-85.4887469829999,40.9058777380001,"46750",36,"General Acute Care"
441,"Summa Health System Barberton Hospital","155 5th Street n E, Barberton, OH 44203","(234) 312-5026","http://www.summahealth.org/locations/hospitals/barberton",-81.5889978229999,41.0150713310001,"44203",271,"General Acute Care"
442,"St Thomas Hospital","444 North Main Street, Akron, OH 44310","(234) 312-5026","http://www.summahealth.org/locations/hospitals/stthomas",-81.514073309,41.097634392,"44310",392,"General Acute Care"
443,"Fayette Regional Health System","1941 Virginia Ave, Connersville, in 47331","(765) 825-5131","http://www.fayetteregional.org",-85.1326609979999,39.6562381750001,"47331",99,"General Acute Care"
444,"Regency Hospital of Akron","155 Fifth Street, Ne, Barberton, OH 44203","(717) 975-4503","http://barberton.regencyhospital.com/",-81.589116796,41.014583541,"44203",45,"Long Term Care"
445,"Indiana University Health White Memorial Hospital","720 South Sixth St, Monticello, in 47960","(574) 583-7111","http://www.iuhealth.org/white-memorial",-86.777599605,40.733974689,"47960",25,"Critical Access"
446,"Larue d Carter Memorial Hospital","2601 Cold Spring Rd, Indianapolis, in 46222","(317) 941-4000","http://www.indiana.gov/",-86.201292048,39.802493552,"46222",159,"Psychiatric"
447,"Landmann-Jungman Memorial Hospital","600 Billars Street, Scotland, SD 57059","(605) 583-2226","http://www.ljmh.org",-97.729045242,43.14903616,"57059",25,"Critical Access"
448,"Kindred Hospital Arizona - Phoenix","40 East Indianola Ave, Phoenix, AZ 85012","(602) 280-7000","http://www.khphoenix.com/",-112.071994754,33.4926529410001,"85012",58,"General Acute Care"
449,"Kindred Hospital Arizona - Scottsdale","11250 North 92nd Street, Scottsdale, AZ 85260","(480) 391-4040","http://www.selectspecialtyhospitals.com/company/locations/scottsdal e.aspx",-111.883449988,33.587592102,"85260",62,"Long Term Care"
450,"Abrazo Scottsdale Campus","3929 East Bell Road, Phoenix, AZ 85032","(602) 923-5640","https://www.abrazohealth.com",-111.997469967,33.639758182,"85032",136,"General Acute Care"
451,"Day Kimball Hospital","320 Pomfret Street, Putnam, CT 6260","(860) 928-6541","http://www.daykimball.org/services-and-locations/day-kimball-hospital/",-71.914455204,41.9066599810001,"6260",104,"General Acute Care"
452,"Windham Community Memorial Hospital","112 Mansfield Ave, Willimantic, CT 6226","(860) 456-9116","http://www.windhamhospital.org",-72.226375264,41.7173006410001,"6226",130,"General Acute Care"
453,"Milford Hospital","300 Seaside Avenue, Milford, CT 6460","(203) 876-4000","http://www.milfordhospital.org",-73.0650149849999,41.21658463,"6460",87,"General Acute Care"
454,"Griffin Hospital","130 Division St, Derby, CT 6418","(203) 732-7500","http://www.griffinhealth.org",-73.089205142,41.3356129970001,"6418",160,"General Acute Care"
455,"The Hospital of Central Connecticut","100 Grand Street, New Britain, CT 6050","(860) 224-5011","http://www.thocc.org",-72.787748396,41.661048674,"6050",229,"General Acute Care"
456,"Floyd Memorial Hospital and Health Services","1850 State St, New Albany, in 47150","(812) 949-5500","http://www.floydmemorial.com",-85.834335192,38.301364386,"47150",225,"General Acute Care"
457,"Physicians' Medical Center Llc","4023 Reas Ln, New Albany, in 47150","(812) 206-7660","http://www.pmcindiana.com",-85.827989949,38.339954129,"47150",12,"Special"
458,"Guidance Center, the","2187 N. Vickey Street, Flagstaff, AZ 86004","(928) 527-1900","http://tgcaz.org",-111.606493954,35.20669667,"86004",16,"General Acute Care"
459,"North Okaloosa Medical Center","151 Redstone Ave Se, Crestview, FL 32539","(850) 689-8100","http://www.northokaloosa.com",-86.562525286,30.735354627,"32539",110,"General Acute Care"
460,"Lake City Va Medical Center","619 s Marion Ave, Lake City, FL 32025","(800) 308-8387","http://www.northflorida.va.gov/",-82.636053465,30.18182054,"32025",180,"Military"
461,"Scottsdale Liberty Hospital","17500 North Perimiter Drive, Scottsdale, AZ 85255","(480) 586-2300","http://freedompainhospital.com",-111.89837164,33.643669585,"85255",12,"General Acute Care"
462,"West Florida Community Care Center","5500 Stewart St, Milton, FL 32570","(850) 983-5500","http://www.bhcpns.org/BehavioralHealth/",-87.042533282,30.634375371,"32570",100,"General Acute Care"
463,"Tallahassee Memorial Hospital","1300 Miccosukee Rd, Tallahassee, FL 32308","(850) 431-5380","http://www.tmh.org",-84.261407288,30.456880933,"32308",772,"General Acute Care"
464,"Baptist Hospital","1000 w Moreno St, Pensacola, FL 32501","(850) 434-4011","http://www.ebaptisthealthcare.org",-87.230420903,30.429417895,"32501",492,"General Acute Care"
465,"Baptist Medical Center South","14550 Old Saint Augustine Rd, Jacksonville, FL 32258","(904) 271-6002","http://www.baptistjax.com/locations/baptist-medical-center-south",-81.535384889,30.138777863,"32258",226,"General Acute Care"
466,"Brooks Rehabilitation Hospital","3599 University Blvd S, Jacksonville, FL 32216","(904) 345-7600","http://www.brookshealth.org",-81.6011747539999,30.290213743,"32216",160,"Rehabilitation"
467,"Specialty Hospital Jacksonville","4901 Richard St, Jacksonville, FL 32207","(904) 737-3120","http://www.specialtyhospitaljax.com",-81.615461889,30.271624402,"32207",107,"General Acute Care"
468,"Bay Medical Center Sacred Heart","615 n Bonita Ave, Panama City, FL 32401","(850) 769-1511","http://www.baymedical.org",-85.6475323779999,30.1597318300001,"32401",323,"General Acute Care"
469,"Healthsouth Emerald Coast Rehabilitation","1847 Florida Ave, Panama City, FL 32405","(850) 914-8600","http://www.healthsouthpanamacity.com",-85.669174992,30.181889921,"32405",75,"Rehabilitation"
470,"Healthmark Regional Medical Center","4413 Us Hwy 331 S, Defuniak Springs, FL 32435","(850) 951-4500","http://www.healthmarkregional.com",-86.117950419,30.659716221,"32435",50,"General Acute Care"
471,"Sgt. John L. Levitow Veteran's Health Center","287 West St, Rocky Hill, CT 6067","(860) 616-3600","http://www.ct.gov/ctva/cwp/view.asp?a=2005&q=482380",-72.6565121419999,41.6567405870001,"6067",-999,"Chronic Disease"
472,"Carson Tahoe Regional Medical Center","1600 Medical Pkwy, Carson City, NV 89703","(775) 445-8000","http://www.carsontahoe.com",-119.784383092,39.2021195900001,"89703",185,"General Acute Care"
473,"Jennersville Regional Hospital","1015 West Baltimore Pike, West Grove, PA 19390","(610) 869-1001","http://www.jennersville.com",-75.887734999,39.822039,"19390",59,"General Acute Care"
474,"Barnes-Jewish Hospital","One Barnes-Jewish Hospital Plaza, St. Louis, MO 63110","(314) 747-3000","http://www.barnesjewish.org",-90.264716055,38.6356744670001,"63110",1110,"General Acute Care"
475,"Corry Memorial Hospital","612 West Smith Street, Corry, PA 16407","(814) 664-4641","http://www.corryhospital.com",-79.653311999,41.9246130010001,"16407",35,"General Acute Care"
476,"Martha's Vineyard Hospital","One Hospital Road, Oak Bluffs, MA 2557","(508) 693-0410","http://www.marthasvineyardhospital.org",-70.5798,41.4608,"2557",25,"General Acute Care"
477,"Southcoast Hospitals Group - St. Luke's Hospital","101 Page Street, New Bedford, MA 2740","(508) 997-1515","http://www.southcoast.org/stlukes/",-70.9384,41.6264,"2740",391,"General Acute Care"
478,"Berkshire Medical Center - Berkshire Campus","725 North Street, Pittsfield, MA 1201","(413) 447-2000","http://www.berkshirehealthsystems.org/BMC",-73.2492,42.46,"1201",298,"General Acute Care"
479,"Cape Cod Hospital","27 Park Street, Barnstable, MA 2601","(508) 771-1800","http://www.capecodhealth.org/hospitals-facilities/cape-cod-hospital/",-70.2729,41.6534,"2601",252,"General Acute Care"
480,"Rchp-Sierra Vista, Inc.","300 El Camino Real, Sierra Vista, AZ 85635","(520) 417-3001","",-110.271674932,31.551398631,"85635",-999,"General Acute Care"
481,"Parkview Wabash Hospital","710 n East St, Wabash, in 46992","(260) 563-3131","http://www.wchospital.com",-85.815870036,40.806916615,"46992",25,"Critical Access"
482,"Louis Stokes Cleveland Veterans Affairs Medical Center","10701 East Blvd, Cleveland, OH 44106","(216) 791-3800","http://www.cleveland.va.gov/",-81.613703544,41.5132563880001,"44106",585,"Military"
483,"St. Vincent Anderson Regional Hospital","2015 Jackson St, Anderson, in 46016","(765) 646-8373","http://www.stvincent.org/Saint-Johns/Default.aspx",-85.681305944,40.0954849360001,"46016",195,"General Acute Care"
484,"Caritas Carney Hospital","2100 Dorchester Avenue, Boston, MA 2124","(781) 344-0600","http://steward.org/Carney-Hospital",-71.0654,42.2775,"2124",159,"General Acute Care"
485,"Clinton Hospital","201 Highland Street, Clinton, MA 1510","","http://www.umassmemorial.org/clinton-hospital",-71.6929,42.4275,"1510",41,"General Acute Care"
486,"Heywood Hospital","242 Green Street, Gardner, MA 1440","(978) 632-3420","http://www.heywood.org",-71.9871,42.5863,"1440",134,"General Acute Care"
487,"Umass Memorial Medical Center - Memorial Campus","119 Belmont Street, Worcester, MA 1605","","http://www.umassmemorial.org",-71.7923,42.2729,"1605",303,"General Acute Care"
488,"Saints Medical Center","1 Hospital Drive, Lowell, MA 1852","(978) 458-1411","http://www.lowellgeneral.org/",-71.3008,42.6457,"1852",157,"General Acute Care"
489,"Newton-Wellesley Hospital","2014 Washington Street, Newton, MA 2462","(617) 243-6000","http://www.nwh.org",-71.246,42.3312,"2462",265,"General Acute Care"
490,"Cambridge Health Alliance - Cambridge Campus","1493 Cambridge Street, Cambridge, MA 2139","(617) 498-1000","http://www.challiance.org/Locations/CambridgeHospitalcampus.aspx",-71.1041,42.3745,"2139",189,"General Acute Care"
491,"Cambridge Health Alliance - Whidden Memorial Campus","103 Garland Street, Everett, MA 2149","(617) 389-6270","http://www.challiance.org/Locations/WhiddenHospitalCampus.aspx",-71.0394,42.4093,"2149",-999,"General Acute Care"
492,"Mercy Medical Center - Providence Behavioral Health Hospital Campus","1233 Main Street, Holyoke, MA 1040","(413) 748-9000","http://www.mercycares.com/pages.asp?id=514",-72.634,42.1659,"1040",131,"Psychiatric"
493,"Baystate Medical Center","759 Chestnut Street, Springfield, MA 1199","(413) 794-0000","http://www.baystatehealth.org/bmc",-72.6032,42.1217,"1199",724,"General Acute Care"
494,"Owatonna Hospital","2250 26th Street Northwest, Owatonna, MN 55060","(507) 451-3850","https://www.allinahealth.org/Owatonna-Hospital/",-93.25109201,44.1120137030001,"55060",43,"General Acute Care"
495,"Wesley Medical Center","550 n Hillside St, Wichita, KS 67214","(316) 962-2000","http://www.wesleymc.com",-97.297903461,37.6949930320001,"67214",595,"General Acute Care"
496,"United Hospital","333 North Smith Avenue, St Paul, MN 55102","(651) 241-8000","https://www.allinahealth.org/United-Hospital/",-93.107144935,44.943379813,"55102",546,"General Acute Care"
497,"Regency Hospital of Mpls Llc","1300 Hidden Lakes Parkway, Golden Valley, MN 55422","(763) 588-2750","http://www.regencyhospital.com",-93.333675738,44.9923032080001,"55422",92,"General Acute Care"
498,"Saint Alphonsus Regional Medical Center","1055 North Curtis Road, Boise, ID 83706","(208) 367-2121","http://www.saintalphonsus.org",-116.255808098,43.613432795,"83706",384,"General Acute Care"
499,"Kootenai Medical Center","2003 Kootenai Health Way, Coeur D'alene, ID 83814","(208) 666-2000","http://www.kmc.org",-116.793702672,47.695503316,"83814",292,"General Acute Care"
500,"St. Joseph Regional Medical Center","415 Sixth Street, Lewiston, ID 83501","(208) 743-2511","http://www.sjrmc.org",-117.024366109,46.416439735,"83501",145,"General Acute Care"
501,"Stony Brook University Hospital","101 Nicolls Rd, Stony Brook, NY 11790","(516) 689-3333","https://www.stonybrookmedicine.edu/sbuh",-73.115678223,40.909194455,"11790",603,"General Acute Care"
502,"Methodist Hospital Union County","4604 U.s. Hwy. 60w, Morganfield, KY 42437","(270) 389-3030","http://www.methodisthospitaluc.net",-87.94765598,37.628796461,"42437",25,"General Acute Care"
503,"Mid-Hudson Valley Division of Westchester Medical Center","241 North Road, Poughkeepsie, NY 12601","(845) 483-5000","http://www.midhudsonregional.org/",-73.927709353,41.7178383880001,"12601",243,"General Acute Care"
504,"Crane Memorial Hospital","1310 South Alford Street, Crane, TX 79322","(432) 558-3555","http://www.cranememorial.org",-102.349905603,31.3895528520001,"79322",25,"Critical Access"
505,"Crosbyton Clinic Hospital","710 West Main Street, Crosbyton, TX 77429","(806) 675-2382","http://www.crosbytonclinichospital.com",-101.246102413,33.660618823,"77429",25,"Critical Access"
506,"Jewish Hospital Shelbyville","727 Hospital Drive, Shelbyville, KY 40065","(502) 647-4300","http://www.kentuckyonehealth.org/jewish-hospital-shelbyville",-85.23592218,38.209027706,"40065",70,"General Acute Care"
507,"The Medical Center at Franklin","1100 Brookhaven Road, Franklin, KY 42134","(270) 598-4800","http://www.themedicalcenterfranklin.org",-86.576828386,36.7000175790001,"42134",25,"General Acute Care"
508,"Clay County Memorial Hospital","310 West South Street, Henrietta, TX 76365","(940) 538-5621","http://www.ccmhospital.com",-98.1984841459999,33.8143726860001,"76365",25,"Critical Access"
509,"Winkler County Memorial Hospital","821 Jeffee Drive, Kermit, TX 79745","(432) 586-5864","http://www.co.winkler.tx.us/‎",-103.090562621,31.8495920550001,"79745",19,"Critical Access"
510,"Liberty-Dayton Regional Medical Center","1353 North Travis Street, Liberty, TX 77575","(936) 336-7316","http://www.libertydaytonrmc.com",-94.798491351,30.068823367,"77575",25,"Critical Access"
511,"W.j. Mangold Memorial Hospital","320 North Main Street, Lockney, TX 79241","(806) 652-3373","http://www.mangoldmemorial.org",-101.441245263,34.1270774830001,"79241",25,"Critical Access"
512,"Frederick Memorial Hospital","400 West Seventh St, Frederick, MD 21701","(240) 566-3300","http://www.fmh.org",-77.414661114,39.42265668,"21701",308,"General Acute Care"
513,"Uhs Hartgrove Hospital","5730 West Roosevelt Road, Chicago, IL 60644","(773) 413-1700","http://www.hartgrovehospital.com",-87.7674642429999,41.866329528,"60644",128,"Psychiatric"
514,"Jesse Brown Va Medical Center - Va Chicago Healthcare System","820 s Damen Street, Chicago, IL 60612","(312) 569-8387","http://www.chicago.va.gov/",-87.6770414819999,41.870737816,"60612",240,"Military"
515,"Palos Community Hospital","12251 South 80th Avenue, Palos Heights, IL 60464","(708) 923-4000","http://www.paloscommunityhospital.org",-87.813443996,41.669210927,"60464",377,"General Acute Care"
516,"Roseland Community Hospital","45 w 111th Street, Chicago, IL 60628","(773) 995-3000","http://www.roselandhospital.org",-87.6253556779999,41.692226444,"60628",115,"General Acute Care"
517,"West Suburban Medical Center","3 Erie Court, Oak Park, IL 60302","(708) 383-6200","http://www.westsuburbanmc.com/Home.aspx",-87.776179564,41.8914014040001,"60302",172,"General Acute Care"
